#------------------------------------------------------------
~VERSION INFORMATION
VERS.               2.0  :CWLS LOG ASCII STANDARD - VERSION 2.0
WRAP.                NO  :ONE LINE PER DEPTH STEP
#------------------------------------------------------------
~WELL INFORMATION
STRT.M        0.0500000  :FIRST INDEX VALUE
STOP.M          136.600  :LAST INDEX VALUE
STEP.M        0.0500000  :STEP
NULL.            -99999  :NULL VALUE
COMP.                    :COMP
WELL.        Scorpio E1  :WELL
FLD.                     :
LOC.             Mt Eba  :LOC
SRVC.                    :
CTRY.                    :
STAT.                SA  :STAT
CNTY.                    :
DATE.        15/03/2015  :DATE
UWI.           6038-187  :WUNT
#------------------------------------------------------------
~CURVE INFORMATION
DEPT.M                   :DEPTH
CALI.MM                  :CALI
DFAR.G/CM3               :DFAR
DNEAR.G/CM3              :DNEAR
GAMN.GAPI                :GAMN
NEUT.CPS                 :NEUT
PR.OHM/M                 :PR
SP.MV                    :SP
COND.MS/M                :COND
#------------------------------------------------------------
~PARAMETER INFORMATION
BS.              216 mm  :BS
JOBN.                    :JOBN
WPMT.                    :WPMT
AGL.                     :AGL
PURP. Cased hole stratigraphy  :PURP
X.              0560160  :X
CSGL.       0 m - 135 m  :CSGL
UNIT.                    :UNIT
Y.              6686430  :Y
TDL.            135.2 m  :TDL
PROD.                    :PROD
MUD.              Water  :MUD
CSGS.            100 mm  :CSGS
ENG.                     :ENG
STEP.              5 cm  :STEP
FluidLevel.        54 m  :FluidLevel
CSGT.               PVC  :CSGT
WIT.                     :WIT
EREF.                    :EREF
PROJ.                    :PROJ
ZONE.               53J  :ZONE
DREF.                GL  :DREF
TDD.              136 m  :TDD
#------------------------------------------------------------
~OTHER
#------------------------------------------------------------
~A   DEPT[M]        CALI        DFAR       DNEAR        GAMN        NEUT          PR          SP        COND
# ...
     125.850     101.714     2.10900     1.96000     30.2135     318.996     2660.33     102.420     405.994
     125.900     101.708     2.10200     1.98400     25.5677     294.004     2653.50     102.426     395.124
     125.950     101.702     2.09100     1.96800     37.1890     340.000     2656.57     102.509     398.086
     126.000     101.696     2.07900     1.98900     34.8654     325.002     2658.45     102.527     399.815
     126.050     101.696     2.06300     1.98700     46.4842     328.999     2653.67     102.554     398.086
     126.100     101.756     2.05600     1.99000     39.5141     296.005     2666.49     102.509     395.863
     126.150     101.780     2.04400     1.99400     39.5130     326.995     2658.28     102.496     395.616
     126.200     101.780     2.05600     1.96600     44.1620     339.000     2661.70     102.502     398.333
     126.250     101.786     2.16900     1.95800     32.5418     343.999     2654.18     102.557     399.568
     126.300     101.756     2.10300     1.96700     60.4277     334.002     2652.65     102.502     405.248
     126.350     101.606     2.11800     1.96200     39.5162     338.999     2659.13     102.512     404.014
     126.400     101.594     2.11000     1.95400     34.8657     317.003     2655.21     102.509     404.014
     126.450     101.672     2.11000     1.94400     34.8650     295.000     2653.84     102.487     398.333
     126.500     101.654     2.04800     1.98400     30.2167     357.990     2649.06     102.487     394.629
     126.550     101.660     2.06400     1.97200     65.0747     321.006     2649.75     102.499     394.875
     126.600     101.648     2.09100     1.97400     53.4608     337.997     2649.75     102.496     398.579
     126.650     101.636     2.04200     1.99700     41.8388     320.003     2630.36     102.481     402.531
     126.700     101.636     2.08100     1.98200     27.8920     330.000     2652.13     102.579     405.249
     126.750     101.624     2.07800     1.98800     30.2156     289.006     2649.58     102.521     413.893
     126.800     101.666     2.09600     1.96600     41.8352     308.997     2644.81     102.524     421.550
     126.850     101.672     2.05000     1.98700     53.4572     320.998     2648.04     102.588     424.515
     126.900     101.690     2.06800     1.97700     34.8678     320.000     2656.74     102.475     425.503
     126.950     101.684     2.10900     1.98500     46.4860     321.000     2654.86     102.527     431.678
     127.000     101.654     2.09100     1.99100     39.5141     303.003     2653.84     102.545     434.148
     127.050     101.624     2.03100     1.99400     27.8938     281.003     2661.01     102.499     439.581
     127.100     101.624     2.07600     1.99900     30.2156     266.002     2661.70     102.563     446.497
     127.150     101.612     2.06600     1.98600     37.1879     269.999     2654.18     102.567     462.057
     127.200     101.612     2.10000     1.97900     41.8370     284.000     2670.60     102.573     471.198
     127.250     101.618     2.09300     1.95100     60.4292     312.996     2651.11     102.563     481.817
     127.300     101.618     2.06300     1.98000     20.9250     303.002     2657.42     102.563     487.252
     127.350     101.660     2.06800     1.98000     37.1865     314.998     2657.08     102.563     486.759
     127.400     101.612     2.10300     1.95600     41.8363     292.004     2660.84     102.615     482.067
     127.450     101.618     2.05600     1.95300     39.5130     284.000     2656.23     102.591     468.481
     127.500     101.624     2.12300     1.97600     41.8366     321.994     2675.74     102.594     459.590
     127.550     101.624     2.08100     1.94600     41.8370     360.994     2654.01     102.600     441.808
     127.600     101.618     2.04100     1.95000     23.2458     291.011     2653.84     102.615     429.457
     127.650     101.654     2.06100     1.94400     37.1869     326.995     2653.50     102.594     417.354
     127.700     101.672     2.06400     1.96400     32.5400     283.000     2650.43     102.612     412.659
     127.750     101.684     2.07300     1.95000     53.4558     341.991     2654.35     102.579     408.461
     127.800     101.702     2.04500     1.96700     32.5432     334.001     2661.70     102.557     415.622
     127.850     101.720     2.05000     1.94600     58.1031     275.009     2650.77     102.533     413.153
     127.900     101.606     2.05500     1.99800     44.1641     292.997     2650.60     102.536     410.930
     127.950     101.504     2.06100     1.94300     67.4050     292.000     2658.96     102.530     416.117
     128.000     101.552     2.10500     1.94700     62.7567     282.002     2657.42     102.579     428.465
     128.050     101.570     2.08800     1.97400     44.1677     288.998     2662.04     102.557     440.072
     128.100     101.576     2.10700     1.92100     58.1027     300.996     2662.55     102.496     460.324
     128.150     101.600     2.05800     1.93800     51.1350     286.000     2662.04     102.545     468.728
     128.200     101.624     2.11800     1.96700     44.1620     286.000     2663.24     102.554     479.843
     128.250     101.606     2.08400     1.97200     58.1070     289.000     2663.92     102.560     494.910
     128.300     101.522     2.12700     2.00900     55.7837     243.014     2651.80     102.515     500.095
     128.350     101.510     2.14400     2.01300     53.4597     262.994     2665.46     102.533     508.492
     128.400     101.552     2.02400     1.97500     55.7830     296.000     2659.65     102.536     521.339
     128.450     101.534     2.05000     1.95700     51.1350     287.000     2660.50     102.551     529.490
     128.500     101.516     2.11200     1.96400     39.5130     273.000     2661.35     102.551     536.900
     128.550     101.516     2.08800     2.02100     39.5130     276.999     2648.90     102.570     540.604
     128.600     101.528     2.09500     1.96500     46.4839     261.005     2660.33     102.643     540.111
     128.650     101.510     2.11000     1.95400     55.7830     272.000     2655.03     102.753     540.358
     128.700     101.504     2.10700     1.98000     41.8370     263.000     2656.40     102.771     544.557
     128.750     101.504     2.10300     1.95300     39.5130     236.000     2654.18     102.802     545.298
     128.800     101.528     2.07900     1.99300     53.4547     235.000     2655.20     102.902     552.706
     128.850     101.528     2.03100     1.98000     51.1357     216.006     2659.47     102.765     559.375
     128.900     101.522     2.08100     1.97700     62.7560     260.000     2651.45     102.753     566.293
     128.950     101.498     2.06300     1.96600     46.4860     229.000     2651.62     102.740     573.209
     129.000     101.492     2.06400     1.96500     58.1070     234.000     2657.94     102.756     574.197
     129.050     101.546     2.06600     1.98200     37.1954     243.997     2662.21     102.698     579.629
     129.100     101.564     2.05800     1.99400     55.7773     245.000     2659.99     102.667     583.088
     129.150     101.594     2.03000     1.97100     55.7830     234.000     2662.04     102.643     588.523
     129.200     101.522     2.03700     1.97000     58.1070     247.000     2664.09     102.658     599.391
     129.250     101.534     2.12500     1.98700     74.3780     250.000     2663.06     102.673     607.542
     129.300     101.516     2.12100     1.99700     76.7013     239.003     2669.40     102.686     612.234
     129.350     101.510     2.07900     1.97300     81.3496     236.001     2665.12     102.658     616.186
     129.400     101.516     2.09600     1.99100     60.4320     229.000     2667.51     102.676     615.693
     129.450     101.492     2.07100     1.95900     67.4050     238.000     2663.06     102.655     622.609
     129.500     101.504     2.09500     1.97700     81.3510     244.000     2657.25     102.618     623.597
