#------------------------------------------------------------
~VERSION INFORMATION
VERS.               2.0  :CWLS LOG ASCII STANDARD - VERSION 2.0
WRAP.                NO  :ONE LINE PER DEPTH STEP
#------------------------------------------------------------
~WELL INFORMATION
STRT.M        0.0500000  :FIRST INDEX VALUE
STOP.M          136.600  :LAST INDEX VALUE
STEP.M        0.0500000  :STEP
NULL.            -99999  :NULL VALUE
COMP.                    :COMP
WELL.        Scorpio E1  :WELL
FLD.                     :
LOC.             Mt Eba  :LOC
SRVC.                    :
CTRY.                    :
STAT.                SA  :STAT
CNTY.                    :
DATE.        15/03/2015  :DATE
UWI.           6038-187  :WUNT
#------------------------------------------------------------
~CURVE INFORMATION
DEPT.M                   :DEPTH
CALI.MM                  :CALI
DFAR.G/CM3               :DFAR
DNEAR.G/CM3              :DNEAR
GAMN.GAPI                :GAMN
NEUT.CPS                 :NEUT
PR.OHM/M                 :PR
SP.MV                    :SP
COND.MS/M                :COND
#------------------------------------------------------------
~PARAMETER INFORMATION
BS.              216 mm  :BS
JOBN.                    :JOBN
WPMT.                    :WPMT
AGL.                     :AGL
PURP. Cased hole stratigraphy  :PURP
X.              0560160  :X
CSGL.       0 m - 135 m  :CSGL
UNIT.                    :UNIT
Y.              6686430  :Y
TDL.            135.2 m  :TDL
PROD.                    :PROD
MUD.              Water  :MUD
CSGS.            100 mm  :CSGS
ENG.                     :ENG
STEP.              5 cm  :STEP
FluidLevel.        54 m  :FluidLevel
CSGT.               PVC  :CSGT
WIT.                     :WIT
EREF.                    :EREF
PROJ.                    :PROJ
ZONE.               53J  :ZONE
DREF.                GL  :DREF
TDD.              136 m  :TDD
#------------------------------------------------------------
~OTHER
#------------------------------------------------------------
~A   DEPT[M]        CALI        DFAR       DNEAR        GAMN        NEUT          PR          SP        COND
   0.0500000     49.7650     4.58700     3.38200    -99999.0    -99999.0    -99999.0    -99999.0    -99999.0
    0.100000     49.7650     4.58700     3.38200    -2324.28    -99999.0     115.508    -3.04900    -116.998
    0.150000     49.7650     4.58700     3.38200    -2324.28    -99999.0     115.508    -3.04900    -116.998
    0.200000     49.7650     4.58700     3.38200    -2324.28    -99999.0     115.508    -3.04900    -116.998
    0.250000     49.7650     4.58700     3.38200    -2324.28    -99999.0     115.508    -3.04900    -116.998
    0.300000     49.7650     4.58700     3.38200    -2324.28    -99999.0     115.508    -3.04900    -116.998
    0.350000     49.7650     4.58700     3.38200    -2324.28    -99999.0     115.508    -3.04900    -116.998
    0.400000     49.7650     4.58700     3.38200    -2324.28    -99999.0     115.508    -3.04900    -116.998
    0.450000     49.7650     4.58700     3.38200    -2324.28    -99999.0     115.508    -3.04900    -116.998
    0.500000     49.7650     4.58700     3.38200    -2324.28    -99999.0     115.508    -3.04900    -116.998
    0.550000     49.7650     4.58700     3.38200    -2324.28    -99999.0     115.508    -3.04900    -116.998
    0.600000     49.7650     4.58700     3.38200    -2324.28    -99999.0     115.508    -3.04900    -116.998
    0.650000     49.7650     4.58700     3.38200    -2324.28    -99999.0     115.508    -3.04900    -116.998
    0.700000     49.7650     4.58700     3.38200    -2324.28    -99999.0     115.508    -3.04900    -116.998
    0.750000     49.7650     4.58700     3.38200    -2324.28    -99999.0     115.508    -3.04900    -116.998
    0.800000     49.7650     4.58700     3.38200    -2324.28    -99999.0     115.508    -3.04900    -116.998
    0.850000     49.7650     4.58700     3.38200    -2324.28    -99999.0     115.508    -3.04900    -116.998
    0.900000     49.7650     4.58700     3.38200    -2324.28    -99999.0     115.508    -3.04900    -116.998
    0.950000     49.7650     4.58700     3.38200    -2324.28    -99999.0     115.508    -3.04900    -116.998
     1.00000     49.7650     4.58700     3.38200    -2324.28    -99999.0     115.508    -3.04900    -116.998
     1.05000     49.7650     4.58700     3.38200    -2324.28    -99999.0     115.508    -3.04900    -116.998
     1.10000     49.7650     4.58700     3.38200    -2324.28    -99999.0     115.508    -3.04900    -116.998
     1.15000     49.7650     4.58700     3.38200    -2324.28    -99999.0     115.508    -3.04900    -116.998
     1.20000     49.7650     4.58700     3.38200    -2324.28    -99999.0     115.508    -3.04900    -116.998
     1.25000     49.7650     4.58700     3.38200    -2324.28    -99999.0     115.508    -3.04900    -116.998
     1.30000     49.7650     4.58700     3.38200    -2324.28    -99999.0     115.508    -3.04900    -116.998
     1.35000     49.7650     4.58700     3.38200    -2324.28    -99999.0     115.508    -3.04900    -116.998
     1.40000     49.7650     4.58700     3.38200    -2324.28    -99999.0     115.508    -3.04900    -116.998
     1.45000     49.7650     4.58700     3.38200    -2324.28    -99999.0     115.508    -3.04900    -116.998
     1.50000     49.7650     4.58700     3.38200    -2324.28    -99999.0     115.508    -3.04900    -115.562
     1.55000     49.7650     4.58700     3.38200    -2324.28    -99999.0     115.508    -3.04900     4590.01
     1.60000     49.7650     4.58700     3.38200    -2324.28    -99999.0     115.508    -3.04900     4572.88
     1.65000     49.7650     4.58700     3.38200    -2324.28    -99999.0     115.508    -3.04900     4569.92
     1.70000     49.7650     4.58700     3.38200    -2324.28    -99999.0     115.508    -3.04900     4571.65
     1.75000     49.7650     4.58700     3.38200    -2324.28    -99999.0     115.508    -3.04900     4580.04
     1.80000     49.7650     4.58700     3.38200    -2324.28    -99999.0     115.508    -3.04900     4584.98
     1.85000     49.7650     4.58700     3.38200    -2324.28    -99999.0     115.508    -3.04900     4584.74
     1.90000     49.7650     4.58700     3.38200    -2324.28    -99999.0     115.508    -3.04900     4581.03
     1.95000     49.7650     4.58700     3.38200    -2324.28    -99999.0     115.508    -3.04900     4565.22
     2.00000     49.7650     4.58700     3.38200    -2324.28    -99999.0     115.508    -3.04900     4562.75
     2.05000     49.7650     4.58700     3.38200    -2324.28    -99999.0     115.508    -3.04900     4552.13
     2.10000     49.7650     4.58660     3.38200    -2324.28    -99999.0     115.508    -3.04900     4532.62
     2.15000     49.7650     1.38140     3.38200    -2324.28    -99999.0     115.508    -3.04900     4514.34
     2.20000     49.7650     1.39800     3.38200    -2324.28    -99999.0     115.508    -3.04900     4519.77
     2.25000     49.7650     1.36300     3.38200    -2324.28    -99999.0     115.508    -3.04900     4530.89
     2.30000     49.7650     1.40000     1.93009    -2324.28    -99999.0     115.508    -3.04900     4531.14
     2.35000     49.7650     1.40900     1.92600    -2324.28    -99999.0     115.508    -3.04900     4526.69
     2.40000     49.7650     1.41000     1.89601    -2324.28    -99999.0     115.508    -3.04900     4526.20
     2.45000     49.7650     1.42200     1.97199    -2324.28    -99999.0     115.508    -3.04900     4521.01
     2.50000     49.7650     1.40400     1.93700    -2324.28    -99999.0     115.508    -3.04900     4510.87
     2.55000     49.7650     1.43500     1.94800    -2324.28    -99999.0     115.508    -3.04900     4472.85
     2.60000     49.7650     1.40901     1.94600    -2324.28    -99999.0     115.508    -3.04900     4437.53
     2.65000     49.7650     1.43900     1.96700    -2324.28    -99999.0     115.508    -3.04900     4448.64
     2.70000     49.7650     1.44300     1.97500    -2324.28    -99999.0     115.508    -3.04900     4459.01
     2.75000     49.7650     1.44900     1.93900    -2324.28    -99999.0     115.508    -3.04900     4484.44
     2.80000     49.7650     1.45700     2.00200    -2324.28    -99999.0     115.508    -3.04900     4475.81
     2.85000     49.7650     1.44300     2.00199    -2324.28    -99999.0     115.508    -3.04900     4473.09
     2.90000     49.7650     1.45000     1.94701    -2324.28    -99999.0     115.508    -3.04900     4455.55
     2.95000     49.7650     1.44300     1.98700    -2324.28    -99999.0     115.508    -3.04900     4434.56
     3.00000     49.7650     1.48400     2.00200    -2324.28    -99999.0     115.508    -3.04900     4429.86
     3.05000     49.7650     1.50400     1.99600    -2324.28    -99999.0     115.508    -3.04900     4416.78
     3.10000     49.7650     1.48200     1.98600    -2324.28    -99999.0     115.508    -3.04900     4402.46
     3.15000     49.7650     1.44201     1.98301    -2324.28    -99999.0     115.508    -3.04900     4428.38
     3.20000     49.7650     1.50800     2.04100    -2324.28    -99999.0     115.508    -3.04900     4437.52
     3.25000     49.7650     1.49500     2.04500    -2324.28    -99999.0     115.508    -3.04900     4435.79
     3.30000     49.7650     1.48500     2.02500    -2324.28    -99999.0     115.508    -3.04900     4404.67
     3.35000     49.7650     1.46601     2.02800    -2324.28    -99999.0     115.508    -3.04900     4377.75
     3.40000     49.7650     1.50500     2.05299    -2324.28    -99999.0     115.508    -3.04900     4345.64
     3.45000     49.7650     1.51400     2.03500    -2324.28    -99999.0     115.508    -3.04900     4336.01
     3.50000     49.7650     1.52900     1.99300    -2324.28    -99999.0     115.508    -3.04900     4399.57
     3.55000     49.7650     1.51900     2.04000    -2324.28    -99999.0     115.508    -3.04900     4740.54
     3.60000     49.7650     1.50700     2.00400    -2324.28    -99999.0     115.508    -3.04900     4869.52
     3.65000     49.7650     1.46300     1.93901    -2324.28    -99999.0     115.508    -3.04900     4978.16
     3.70000     49.7650     1.43900     1.98300    -2324.28    -99999.0     115.508    -3.04900     4672.93
