#------------------------------------------------------------
~VERSION INFORMATION
VERS.               2.0  :CWLS LOG ASCII STANDARD - VERSION 2.0
WRAP.                NO  :ONE LINE PER DEPTH STEP
#------------------------------------------------------------
~WELL INFORMATION
STRT.M        0.0500000  :FIRST INDEX VALUE
STOP.M          136.600  :LAST INDEX VALUE
STEP.M        0.0500000  :STEP
NULL.            -99999  :NULL VALUE
COMP.                    :COMP
WELL.        Scorpio E1  :WELL
FLD.                     :
LOC.             Mt Eba  :LOC
SRVC.                    :
CTRY.                    :
STAT.                SA  :STAT
CNTY.                    :
DATE.        15/03/2015  :DATE
UWI.           6038-187  :WUNT
#------------------------------------------------------------
~CURVE INFORMATION
DEPT.M                   :DEPTH
CALI.MM                  :CALI
DFAR.G/CM3               :DFAR
DNEAR.G/CM3              :DNEAR
GAMN.GAPI                :GAMN
NEUT.CPS                 :NEUT
PR.OHM/M                 :PR
SP.MV                    :SP
COND.MS/M                :COND
#------------------------------------------------------------
~PARAMETER INFORMATION
BS.              216 mm  :BS
JOBN.                    :JOBN
WPMT.                    :WPMT
AGL.                     :AGL
PURP. Cased hole stratigraphy  :PURP
X.              0560160  :X
CSGL.       0 m - 135 m  :CSGL
UNIT.                    :UNIT
Y.              6686430  :Y
TDL.            135.2 m  :TDL
PROD.                    :PROD
MUD.              Water  :MUD
CSGS.            100 mm  :CSGS
ENG.                     :ENG
STEP.              5 cm  :STEP
FluidLevel.        54 m  :FluidLevel
CSGT.               PVC  :CSGT
WIT.                     :WIT
EREF.                    :EREF
PROJ.                    :PROJ
ZONE.               53J  :ZONE
DREF.                GL  :DREF
TDD.              136 m  :TDD
#------------------------------------------------------------
~OTHER
#------------------------------------------------------------
~A   DEPT[M]        CALI        DFAR       DNEAR        GAMN        NEUT          PR          SP        COND
# ...
     107.350     100.641     1.96500     1.88700     111.562     242.998     2623.25     101.721     291.383
     107.400     101.612     1.97500     1.84800     86.0029     247.999     2618.17     101.831     285.949
     107.450     101.642     1.97900     1.83200     92.9720     287.000     2619.01     101.965     283.231
     107.500     101.630     1.98600     1.88600     83.6764     304.997     2627.14     101.984     265.450
     107.550     101.654     1.99500     1.90900     95.2942     320.998     2594.40     102.026     267.176
     107.600     101.666     2.01200     1.89500     62.7610     299.003     2607.53     102.078     272.115
     107.650     101.660     1.99800     1.88400     88.3191     308.998     2610.90     102.084     271.622
     107.700     101.660     2.04100     1.91800     67.4050     260.000     2625.28     102.090     249.145
     107.750     101.630     2.03700     1.89500     90.6445     300.994     2614.79     102.127     202.222
     107.800     101.624     2.05000     1.93600     92.9716     286.002     2626.29     102.087     176.284
     107.850     101.624     2.04500     1.89400     69.7325     293.999     2621.21     102.042     165.661
     107.900     101.618     2.10700     1.89900     83.6729     298.999     2618.84     102.042     166.153
     107.950     101.612     1.99500     1.86100     62.7560     291.000     2621.04     102.029     165.165
     108.000     101.708     2.04500     1.92400     83.6718     268.004     2619.86     101.981     165.165
     108.050     101.708     2.03700     1.92700     79.0267     268.000     2621.04     101.926     169.610
     108.100     101.708     2.03400     1.93300     51.1393     248.003     2624.43     101.892     171.340
     108.150     101.588     2.06300     1.92200     85.9937     290.993     2601.30     101.810     174.304
     108.200     101.534     2.05200     1.90100     69.7290     292.000     2619.69     101.755     173.069
     108.250     101.576     2.04100     1.90400     90.6448     271.003     2619.35     101.709     173.069
     108.300     101.552     2.04500     1.90800     60.4366     262.001     2619.18     101.682     171.587
     108.350     101.648     2.06100     1.92700     72.0512     282.997     2609.05     101.675     171.093
     108.400     101.732     2.05000     1.94000     55.7855     282.000     2613.44     101.657     178.502
     108.450     101.750     2.03000     1.91800     79.0260     271.000     2611.75     101.624     180.479
     108.500     101.618     2.03900     1.98400     69.7304     292.997     2609.05     101.605     179.244
     108.550     101.624     2.05600     1.96600     102.264     256.006     2620.36     101.587     181.467
     108.600     101.618     2.08400     1.97000     79.0295     289.995     2613.60     101.617     180.726
     108.650     101.552     2.06300     1.97300     76.7024     264.004     2609.05     101.648     183.937
     108.700     101.324     2.07300     1.99600     76.7020     300.000     2598.60     101.624     186.407
     108.750     101.259     2.10200     1.95900     67.4064     284.002     2617.15     101.614     185.419
     108.800     101.348     2.08300     1.98100     69.7286     312.996     2617.49     101.605     185.666
     108.850     101.360     2.13600     1.95600     69.7290     278.005     2620.53     101.657     184.431
     108.900     101.372     2.09600     1.97500     58.1088     287.998     2624.60     101.645     180.727
     108.950     101.354     2.10700     1.97700     69.7290     304.000     2635.79     101.697     184.431
     109.000     101.372     2.06800     1.96700     79.0246     268.005     2624.60     101.642     184.678
     109.050     101.336     2.09600     1.98200     58.1102     275.999     2619.86     101.678     183.937
     109.100     101.055     2.07300     2.00400     72.0509     285.998     2644.29     101.669     180.233
     109.150     101.025     2.08600     2.00100     88.3205     272.002     2613.27     101.672     178.009
     109.200     101.019     2.09500     1.96700     79.0260     268.000     2609.05     101.672     182.455
     109.250     101.067     2.16100     1.96500     69.7304     285.997     2624.43     101.672     182.455
     109.300     101.073     2.11800     1.98800     76.7009     322.994     2629.00     101.697     187.641
     109.350     100.989     2.11800     1.98800     83.6739     293.005     2617.66     101.688     181.962
     109.400     100.899     2.03600     1.97400     76.7031     290.000     2625.78     101.694     181.467
     109.450     101.067     2.08800     1.97800     79.0260     294.000     2613.10     101.694     187.889
     109.500     101.229     2.08900     2.00300     60.4348     306.998     2618.17     101.694     187.395
     109.550     101.247     2.07100     2.00400     65.0793     265.006     2611.41     101.697     184.184
     109.600     101.259     2.14800     1.95400     97.6160     328.990     2616.65     101.700     177.763
     109.650     101.235     2.07100     1.96200     83.6771     289.006     2620.37     101.675     179.985
     109.700     101.205     2.11000     1.97700     85.9990     326.000     2622.74     101.727     172.575
     109.750     101.289     2.14000     1.98500     76.7034     301.004     2610.06     101.691     176.526
     109.800     101.265     2.13000     2.00200     102.265     350.992     2616.48     101.685     170.353
     109.850     101.241     2.04100     1.99000     79.0295     347.001     2618.51     101.724     169.364
     109.900     101.115     2.04200     1.98100     72.0541     355.999     2622.74     101.733     169.858
     109.950     101.283     2.11600     1.96900     67.4050     398.000     2620.53     101.724     161.213
     110.000     101.402     2.10300     2.01300     60.4331     411.998     2624.26     101.804     156.768
     110.050     101.474     2.09100     1.98900     55.7837     457.993     2628.33     101.743     144.419
     110.100     101.408     2.10900     1.99300     60.4313     473.998     2625.62     101.703     135.032
     110.150     101.372     2.09800     2.01200     104.586     496.996     2630.87     101.721     120.460
     110.200     101.456     2.08900     2.01000     65.0800     579.000     2618.67     101.718     116.259
     110.250     101.480     2.11600     2.00200     69.7283     563.002     2620.20     101.724     109.591
     110.300     101.450     2.13400     1.98000     53.4615     559.001     2623.58     101.746     104.898
     110.350     101.402     2.15500     2.02100     34.8678     508.008     2624.26     101.755     108.601
     110.400     101.498     2.20300     2.05500     48.8079     506.000     2643.78     101.801     111.813
     110.450     101.516     2.12900     2.03500     65.0800     486.000     2622.57     101.852     111.566
     110.500     101.528     2.15700     2.01400     51.1371     489.999     2616.48     101.935     111.566
     110.550     101.504     2.20700     2.05100     65.0779     501.998     2618.34     102.045     114.777
     110.600     101.486     2.17100     2.04300     51.1371     452.008     2617.32     102.142     115.024
     110.650     101.558     2.13000     2.03700     62.7542     408.007     2617.15     102.252     124.902
     110.700     101.600     2.19600     2.00800     60.4320     400.000     2621.89     102.206     136.513
     110.750     101.612     2.14400     2.04700     48.8118     355.007     2617.83     102.191     149.108
     110.800     101.588     2.08100     2.01200     53.4583     356.000     2615.63     102.145     168.620
     110.850     101.558     2.12900     2.00800     41.8388     327.004     2614.45     102.130     184.429
     110.900     101.564     2.11400     1.99600     55.7809     301.004     2620.53     102.112     205.176
     110.950     101.642     2.11900     2.01100     55.7830     277.000     2620.53     102.087     238.524
     111.000     101.612     2.11400     1.97700     37.1918     289.998     2625.61     102.087     266.431
