#------------------------------------------------------------
~VERSION INFORMATION
VERS.               2.0  :CWLS LOG ASCII STANDARD - VERSION 2.0
WRAP.                NO  :ONE LINE PER DEPTH STEP
#------------------------------------------------------------
~WELL INFORMATION
STRT.M        0.0500000  :FIRST INDEX VALUE
STOP.M          136.600  :LAST INDEX VALUE
STEP.M        0.0500000  :STEP
NULL.            -99999  :NULL VALUE
COMP.                    :COMP
WELL.        Scorpio E1  :WELL
FLD.                     :
LOC.             Mt Eba  :LOC
SRVC.                    :
CTRY.                    :
STAT.                SA  :STAT
CNTY.                    :
DATE.        15/03/2015  :DATE
UWI.           6038-187  :WUNT
#------------------------------------------------------------
~CURVE INFORMATION
DEPT.M                   :DEPTH
CALI.MM                  :CALI
DFAR.G/CM3               :DFAR
DNEAR.G/CM3              :DNEAR
GAMN.GAPI                :GAMN
NEUT.CPS                 :NEUT
PR.OHM/M                 :PR
SP.MV                    :SP
COND.MS/M                :COND
#------------------------------------------------------------
~PARAMETER INFORMATION
BS.              216 mm  :BS
JOBN.                    :JOBN
WPMT.                    :WPMT
AGL.                     :AGL
PURP. Cased hole stratigraphy  :PURP
X.              0560160  :X
CSGL.       0 m - 135 m  :CSGL
UNIT.                    :UNIT
Y.              6686430  :Y
TDL.            135.2 m  :TDL
PROD.                    :PROD
MUD.              Water  :MUD
CSGS.            100 mm  :CSGS
ENG.                     :ENG
STEP.              5 cm  :STEP
FluidLevel.        54 m  :FluidLevel
CSGT.               PVC  :CSGT
WIT.                     :WIT
EREF.                    :EREF
PROJ.                    :PROJ
ZONE.               53J  :ZONE
DREF.                GL  :DREF
TDD.              136 m  :TDD
#------------------------------------------------------------
~OTHER
#------------------------------------------------------------
~A   DEPT[M]        CALI        DFAR       DNEAR        GAMN        NEUT          PR          SP        COND
# ...
     114.750     101.594     2.06100     1.94200     37.1936     282.996     2619.86     102.179     782.171
     114.800     101.612     2.03600     1.91600     48.8082     283.000     2622.74     102.179     785.135
     114.850     101.576     2.01500     1.94900     44.1627     275.001     2623.58     102.197     786.370
     114.900     101.660     2.04500     1.96300     55.7812     276.000     2621.38     102.216     790.074
     114.950     101.516     2.07400     1.97800     53.4590     263.000     2647.19     102.200     792.792
     115.000     101.468     2.09300     1.96000     58.1063     277.998     2623.42     102.179     795.015
     115.050     101.462     2.10000     2.00600     41.8395     267.002     2621.55     102.185     795.015
     115.100     101.444     2.11000     2.03100     55.7809     272.999     2632.40     102.158     798.472
     115.150     101.450     2.10500     1.99900     48.8111     234.006     2638.00     102.155     796.250
     115.200     101.480     2.13200     2.03900     53.4590     272.000     2626.97     102.167     784.641
     115.250     101.678     2.06800     2.06300     51.1354     275.999     2625.28     102.173     774.269
     115.300     101.756     2.09600     2.03900     65.0779     266.002     2634.09     102.155     744.632
     115.350     101.612     2.05500     2.01700     34.8696     320.992     2635.11     102.161     717.461
     115.400     101.600     2.01900     1.99400     72.0473     342.997     2634.26     102.155     672.510
     115.450     101.618     2.09600     1.98300     51.1350     334.000     2630.70     102.151     641.134
     115.500     101.606     2.11900     1.99400     74.3745     294.006     2633.08     102.209     602.855
     115.550     101.600     2.11200     1.99200     60.4341     303.998     2632.74     102.185     594.946
     115.600     101.600     2.10200     1.98000     55.7837     294.002     2632.06     102.173     598.402
     115.650     101.600     2.03100     1.96700     48.8111     290.001     2637.83     102.155     619.395
     115.700     101.606     2.03100     2.02000     60.4320     281.000     2633.42     102.155     657.930
     115.750     101.600     2.10000     1.99300     72.0512     260.003     2627.48     102.170     685.590
     115.800     101.636     2.10900     1.98100     51.1382     279.997     2626.12     102.173     706.092
     115.850     101.660     2.15500     1.97800     67.4025     261.003     2624.43     102.194     733.755
     115.900     101.648     2.07600     1.98900     53.4611     278.997     2624.77     102.173     755.245
     115.950     101.636     2.06400     2.00400     67.4050     302.000     2621.55     102.179     777.725
     116.000     101.624     2.08300     2.03400     53.4611     282.003     2622.40     102.182     796.494
     116.050     101.666     2.08300     2.01500     37.1915     268.002     2632.23     102.164     821.687
     116.100     101.648     2.07900     2.07300     39.5126     286.997     2632.91     102.155     833.051
     116.150     101.660     2.13600     2.04300     51.1332     298.998     2619.86     102.115     845.895
     116.200     101.642     2.14400     2.06700     44.1620     240.000     2624.26     102.164     853.060
     116.250     101.612     2.06800     2.07700     46.4856     281.994     2619.52     102.158     859.975
     116.300     101.654     2.10300     2.03300     44.1624     268.002     2631.04     102.170     862.199
     116.350     101.684     2.12500     2.09100     62.7532     271.999     2635.62     102.216     865.163
     116.400     101.732     2.11200     2.07700     41.8402     253.003     2635.45     102.194     867.139
     116.450     101.792     2.13000     2.04000     46.4860     275.000     2636.98     102.240     871.585
     116.500     101.810     2.08600     2.08100     53.4579     298.996     2635.28     102.231     873.067
     116.550     101.816     2.11800     2.06200     55.7826     290.001     2635.11     102.240     869.610
     116.600     101.798     2.10700     2.07700     74.3752     293.000     2639.02     102.225     874.795
     116.650     101.714     2.10500     2.05300     62.7578     268.004     2633.93     102.271     878.994
     116.700     101.714     2.14200     2.06800     53.4590     306.000     2632.40     102.264     876.031
     116.750     101.708     2.07800     2.05300     51.1354     295.002     2632.57     102.264     871.586
     116.800     101.714     2.12500     2.04400     62.7542     284.002     2630.70     102.246     852.075
     116.850     101.720     2.08600     2.06500     69.7279     290.999     2631.72     102.228     847.133
     116.900     101.708     2.14900     2.07000     48.8132     303.998     2629.00     102.216     841.452
     116.950     101.624     2.11800     2.09100     53.4590     263.000     2632.40     102.173     851.825
     117.000     101.654     2.15900     2.08000     30.2195     289.996     2630.19     102.133     859.728
     117.050     101.660     2.06900     2.03400     39.5116     267.004     2614.11     102.124     876.276
     117.100     101.666     2.13000     2.06700     48.8086     279.998     2623.24     102.133     881.464
     117.150     101.588     2.07900     2.05500     51.1346     270.002     2628.83     102.203     881.465
     117.200     101.588     2.08900     2.04400     53.4590     289.000     2624.77     102.124     877.019
     117.250     101.582     2.10000     2.08000     53.4590     264.004     2627.48     102.176     861.954
     117.300     101.720     2.04700     2.00200     62.7546     262.000     2635.62     102.203     860.223
     117.350     101.708     2.03300     2.01700     55.7841     252.002     2635.79     102.200     864.668
     117.400     101.570     2.06100     2.01300     76.6988     275.996     2638.17     102.173     868.620
     117.450     101.642     2.07800     1.99300     74.3780     257.000     2637.66     102.170     865.163
     117.500     101.792     2.11600     1.98600     39.5183     279.996     2635.79     102.127     858.495
     117.550     101.696     2.08100     1.98300     44.1613     258.003     2638.85     102.158     849.603
     117.600     101.630     2.07400     1.98000     62.7532     292.995     2638.85     102.161     839.970
     117.650     101.498     2.00800     1.95500     51.1368     269.004     2652.47     102.203     838.734
     117.700     101.558     2.14000     2.02500     74.3780     260.000     2639.70     102.173     827.866
     117.750     101.816     2.12700     2.01100     48.8139     272.998     2644.29     102.173     827.619
     117.800     101.804     2.10900     2.02900     53.4583     284.998     2636.98     102.164     825.149
     117.850     101.810     2.04800     2.05800     41.8388     257.004     2656.40     102.167     823.173
     117.900     101.810     2.06600     2.04400     81.3450     254.000     2631.72     102.155     814.776
     117.950     101.828     2.05900     2.04700     74.3780     266.000     2630.53     102.158     808.847
     118.000     101.828     2.04800     2.02300     65.0814     269.000     2630.02     102.121     803.908
     118.050     101.840     2.09800     2.03800     46.4888     280.998     2627.99     102.081     798.968
     118.100     101.792     2.06900     2.02100     53.4579     276.001     2636.98     102.066     789.089
     118.150     101.840     2.08900     2.03700     46.4871     291.998     2632.40     102.112     775.257
     118.200     101.876     2.07100     2.06700     32.5400     243.000     2611.75     102.155     760.929
     118.250     101.864     2.11200     2.06000     60.4277     303.991     2622.56     102.136     753.026
     118.300     101.840     2.08600     2.01100     72.0512     270.005     2631.55     102.164     749.568
     118.350     101.846     2.09100     2.04300     46.4899     270.000     2635.62     102.179     749.567
     118.400     101.864     2.08600     2.04400     72.0491     238.005     2636.13     102.164     760.186
