#------------------------------------------------------------
~VERSION INFORMATION
VERS.               2.0  :CWLS LOG ASCII STANDARD - VERSION 2.0
WRAP.                NO  :ONE LINE PER DEPTH STEP
#------------------------------------------------------------
~WELL INFORMATION
STRT.M        0.0500000  :FIRST INDEX VALUE
STOP.M          136.600  :LAST INDEX VALUE
STEP.M        0.0500000  :STEP
NULL.            -99999  :NULL VALUE
COMP.                    :COMP
WELL.        Scorpio E1  :WELL
FLD.                     :
LOC.             Mt Eba  :LOC
SRVC.                    :
CTRY.                    :
STAT.                SA  :STAT
CNTY.                    :
DATE.        15/03/2015  :DATE
UWI.           6038-187  :WUNT
#------------------------------------------------------------
~CURVE INFORMATION
DEPT.M                   :DEPTH
CALI.MM                  :CALI
DFAR.G/CM3               :DFAR
DNEAR.G/CM3              :DNEAR
GAMN.GAPI                :GAMN
NEUT.CPS                 :NEUT
PR.OHM/M                 :PR
SP.MV                    :SP
COND.MS/M                :COND
#------------------------------------------------------------
~PARAMETER INFORMATION
BS.              216 mm  :BS
JOBN.                    :JOBN
WPMT.                    :WPMT
AGL.                     :AGL
PURP. Cased hole stratigraphy  :PURP
X.              0560160  :X
CSGL.       0 m - 135 m  :CSGL
UNIT.                    :UNIT
Y.              6686430  :Y
TDL.            135.2 m  :TDL
PROD.                    :PROD
MUD.              Water  :MUD
CSGS.            100 mm  :CSGS
ENG.                     :ENG
STEP.              5 cm  :STEP
FluidLevel.        54 m  :FluidLevel
CSGT.               PVC  :CSGT
WIT.                     :WIT
EREF.                    :EREF
PROJ.                    :PROJ
ZONE.               53J  :ZONE
DREF.                GL  :DREF
TDD.              136 m  :TDD
#------------------------------------------------------------
~OTHER
#------------------------------------------------------------
~A   DEPT[M]        CALI        DFAR       DNEAR        GAMN        NEUT          PR          SP        COND
# ...
     44.4500     101.313     1.82100     2.01300     39.5135     601.996     50499.9     100.513     332.631
     44.5000     101.301     1.77100     2.02800     83.6683     609.999     50499.9     100.504     334.113
     44.5500     101.067     1.79200     1.98600     79.0264     660.996     50499.9     100.522     333.125
     44.6000     100.911     1.77300     1.99100     53.4629     575.013     50499.9     100.494     330.655
     44.6500     100.941     1.75200     1.97800     65.0782     590.998     50499.9     100.476     325.716
     44.7000     101.037     1.77700     1.98200     62.7565     618.994     50499.9     100.378     320.776
     44.7500     101.127     1.76300     1.93700     55.7841     604.002     50499.9     100.302     313.613
     44.8000     101.157     1.75300     1.92400     58.1068     662.995     50499.9     100.153     299.287
     44.8500     101.265     1.73500     1.94200     74.3755     630.005     50499.9     100.092     291.383
     44.9000     101.271     1.74600     1.95100     55.7858     690.991     50499.9     100.107     280.269
     44.9500     101.324     1.73100     1.90500     65.0779     615.017     50499.9     100.116     279.279
     45.0000     101.366     1.71500     1.88200     48.8125     607.001     50499.9     100.101     273.352
     45.0500     101.420     1.72600     1.84500     85.9962     636.998     50499.9     100.104     279.279
     45.1000     101.283     1.71700     1.80800     83.6754     620.003     50499.9     100.104     284.959
     45.1500     101.360     1.68600     1.82100     92.9706     609.002     50499.9     100.095     289.158
     45.2000     101.426     1.76100     1.85100     76.7057     653.990     50499.9     100.092     293.110
     45.2500     101.396     1.77100     1.90100     95.2932     637.003     50499.9     100.095     294.840
     45.3000     101.342     1.77400     1.92200     99.9446     616.002     50499.9     100.128     296.322
     45.3500     101.277     1.73000     1.96000     65.0853     626.998     50499.9     100.140     294.593
     45.4000     101.229     1.76900     1.98000     67.4046     560.010     50499.9     100.156     300.520
     45.4500     101.139     1.73800     1.95100     79.0233     591.993     50499.9     100.171     302.497
     45.5000     100.833     1.81900     1.96900     79.0260     607.998     50499.9     100.177     305.214
     45.5500     100.803     1.79300     1.94700     92.9709     584.002     50499.9     100.177     306.449
     45.6000     100.905     1.75500     1.94800     76.7045     614.995     50499.9     100.186     307.437
     45.6500     101.013     1.77100     1.95600     104.589     649.995     50499.9     100.177     300.028
     45.7000     101.061     1.80700     1.99500     86.0033     639.003     50499.9     100.174     296.076
     45.7500     101.007     1.76600     1.98400     48.8157     591.007     50499.9     100.186     290.642
     45.8000     101.199     1.76600     2.00100     55.7825     588.000     50499.9     100.171     281.256
     45.8500     101.360     1.77800     2.00000     74.3752     635.993     50499.9     100.171     268.413
     45.9000     101.432     1.78700     1.98100     76.7016     596.006     50499.9     100.208     261.249
     45.9500     101.444     1.69300     2.00400     85.9969     559.008     50499.9     100.226     253.346
     46.0000     101.444     1.69600     2.00600     85.9990     590.995     50499.9     100.186     247.911
     46.0500     101.540     1.66500     1.90700     81.3513     569.002     50499.9     100.171     255.813
     46.1000     101.498     1.67500     1.79300     88.3219     555.002     50499.9     100.156     254.579
     46.1500     101.492     1.68600     1.72200     90.6476     557.000     50499.9     100.156     256.061
     46.2000     101.510     1.67600     1.77300     88.3235     638.981     50499.9     100.146     250.628
     46.2500     101.408     1.70800     1.77700     95.2949     578.009     50499.9     100.183     246.182
     46.3000     101.438     1.68500     1.80600     120.862     581.000     50499.9     100.208     243.464
     46.3500     101.540     1.69600     1.82400     125.511     623.993     50499.9     100.201     239.019
     46.4000     101.516     1.69900     1.79600     127.837     656.995     50499.9     100.275     237.783
     46.4500     101.462     1.68900     1.81500     125.513     645.003     50499.9     100.247     237.536
     46.5000     101.540     1.64500     1.81600     111.568     667.996     50499.9     100.244     235.066
     46.5500     101.444     1.69400     1.81400     120.863     679.999     50499.9     100.232     233.831
     46.6000     101.444     1.68800     1.79900     88.3280     706.996     50499.9     100.226     235.807
     46.6500     101.324     1.70500     1.77100     120.859     666.006     50499.9     100.217     237.536
     46.7000     101.342     1.72100     1.77900     95.3018     674.998     50499.9     100.165     244.944
     46.7500     101.247     1.71500     1.78000     79.0285     650.004     50499.9     100.177     240.254
     46.8000     101.229     1.69600     1.79200     83.6747     601.004     50499.9     100.067     236.301
     46.8500     101.336     1.68900     1.79400     85.9986     633.995     50499.9     100.076     225.188
     46.9000     101.241     1.69900     1.77600     76.7034     625.001     50499.9     100.049     221.729
     46.9500     101.211     1.66200     1.74900     95.2917     571.012     50499.9     99.9940     216.048
     47.0000     101.229     1.65000     1.75300     113.888     572.000     50499.9     99.9940     214.565
     47.0500     101.318     1.66100     1.76800     141.780     515.004     50499.9     99.9450     215.553
     47.1000     101.277     1.65800     1.74800     109.247     517.000     50499.9     99.9210     212.589
     47.1500     101.354     1.62900     1.74900     113.890     477.006     50499.9     99.8960     208.885
     47.2000     101.103     1.63700     1.69400     95.3003     515.991     50499.9     99.9050     214.317
     47.2500     103.380     1.60500     1.67100     113.888     558.993     50499.9     99.9210     211.107
     47.3000     100.617     1.62000     1.65400     130.160     677.991     50499.9     99.9480     232.347
     47.3500     100.905     1.65200     1.70700     86.0057     669.001     50499.9     99.9600     220.248
     47.4000     100.983     1.65800     1.76800     83.6754     684.998     50499.9     100.000     210.121
     47.4500     100.965     1.68900     1.71200     99.9413     675.002     50499.9     100.006     202.711
     47.5000     100.989     1.64700     1.64400     90.6494     676.000     50499.9     100.043     219.502
     47.5500     100.929     1.70200     1.61600     90.6480     720.997     50499.9     100.095     227.902
     47.6000     100.911     1.67500     1.63700     74.3805     777.991     50499.9     100.116     236.794
     47.6500     100.929     1.73100     1.70900     85.9972     763.002     50499.9     100.146     240.006
     47.7000     100.881     1.72200     1.76300     85.9990     793.993     50499.9     100.137     237.784
     47.7500     100.767     1.73600     1.83100     90.6473     757.006     50499.9     100.192     227.658
     47.8000     100.869     1.78100     1.83600     95.2956     798.997     50499.9     100.104     216.295
     47.8500     100.845     1.74400     1.85000     106.916     863.990     50499.9     100.183     211.602
     47.9000     100.899     1.77400     1.86700     109.242     796.010     50499.9     100.177     204.192
     47.9500     100.893     1.68800     1.89200     95.2992     791.001     50499.9     100.177     200.981
     48.0000     100.869     1.75800     1.88000     74.3812     821.995     50499.9     100.198     192.583
     48.0500     100.923     1.70800     1.87200     81.3505     746.006     50499.9     100.201     187.148
     48.1000     100.935     1.75200     1.91400     88.3219     767.997     50499.9     100.204     185.172
