#------------------------------------------------------------
~VERSION INFORMATION
VERS.               2.0  :CWLS LOG ASCII STANDARD - VERSION 2.0
WRAP.                NO  :ONE LINE PER DEPTH STEP
#------------------------------------------------------------
~WELL INFORMATION
STRT.M        0.0500000  :FIRST INDEX VALUE
STOP.M          136.600  :LAST INDEX VALUE
STEP.M        0.0500000  :STEP
NULL.            -99999  :NULL VALUE
COMP.                    :COMP
WELL.        Scorpio E1  :WELL
FLD.                     :
LOC.             Mt Eba  :LOC
SRVC.                    :
CTRY.                    :
STAT.                SA  :STAT
CNTY.                    :
DATE.        15/03/2015  :DATE
UWI.           6038-187  :WUNT
#------------------------------------------------------------
~CURVE INFORMATION
DEPT.M                   :DEPTH
CALI.MM                  :CALI
DFAR.G/CM3               :DFAR
DNEAR.G/CM3              :DNEAR
GAMN.GAPI                :GAMN
NEUT.CPS                 :NEUT
PR.OHM/M                 :PR
SP.MV                    :SP
COND.MS/M                :COND
#------------------------------------------------------------
~PARAMETER INFORMATION
BS.              216 mm  :BS
JOBN.                    :JOBN
WPMT.                    :WPMT
AGL.                     :AGL
PURP. Cased hole stratigraphy  :PURP
X.              0560160  :X
CSGL.       0 m - 135 m  :CSGL
UNIT.                    :UNIT
Y.              6686430  :Y
TDL.            135.2 m  :TDL
PROD.                    :PROD
MUD.              Water  :MUD
CSGS.            100 mm  :CSGS
ENG.                     :ENG
STEP.              5 cm  :STEP
FluidLevel.        54 m  :FluidLevel
CSGT.               PVC  :CSGT
WIT.                     :WIT
EREF.                    :EREF
PROJ.                    :PROJ
ZONE.               53J  :ZONE
DREF.                GL  :DREF
TDD.              136 m  :TDD
#------------------------------------------------------------
~OTHER
#------------------------------------------------------------
~A   DEPT[M]        CALI        DFAR       DNEAR        GAMN        NEUT          PR          SP        COND
# ...
     62.9500     101.516     1.77700     1.69900     65.0800     144.002     2709.17     93.9640     231.858
     63.0000     101.516     1.79000     1.64300     83.6722     150.999     2704.85     93.9880     223.458
     63.0500     101.516     1.73700     1.64400     67.4062     122.002     2706.41     94.0400     203.205
     63.1000     101.468     1.82300     1.60300     53.4611     148.996     2703.99     94.0800     197.029
     63.1500     101.384     1.78700     1.60100     72.0502     149.000     2704.68     94.1130     194.805
     63.2000     101.271     1.82200     1.70900     60.4347     156.998     2723.73     94.0580     201.719
     63.2500     101.432     1.81000     1.77200     67.4039     140.003     2700.02     94.0980     202.462
     63.3000     101.438     1.82600     1.76000     83.6738     141.000     2704.85     94.1410     211.600
     63.3500     101.324     1.74900     1.79700     72.0548     135.001     2701.57     94.1960     228.888
     63.4000     101.378     1.74400     1.77500     79.0249     139.999     2699.67     94.1930     234.324
     63.4500     101.498     1.75800     1.79000     67.4077     148.998     2714.37     94.2470     232.843
     63.5000     101.348     1.71700     1.60500     85.9962     147.000     2698.81     94.2410     227.163
     63.5500     101.360     1.64500     1.46000     90.6476     140.001     2694.66     94.2750     211.849
     63.6000     101.372     1.62600     1.38100     95.2953     155.998     2701.74     94.2990     199.500
     63.6500     101.540     1.64700     1.48200     79.0285     155.000     2706.75     94.2810     198.263
     63.7000     101.492     1.71300     1.64700     55.7883     156.000     2704.68     94.3120     194.806
     63.7500     101.313     1.76800     1.71300     81.3471     135.003     2709.17     94.3180     195.793
     63.8000     101.468     1.81800     1.73300     65.0812     153.999     2704.68     94.3050     199.498
     63.8500     101.558     1.86700     1.74400     58.1081     151.000     2708.31     94.2930     204.684
     63.9000     101.522     1.78300     1.79900     83.6711     148.000     2708.31     94.3080     207.155
     63.9500     101.576     1.81500     1.79600     79.0271     163.996     2705.02     94.2900     207.155
     64.0000     101.450     1.83900     1.83700     55.7865     177.998     2713.50     94.3300     199.746
     64.0500     101.396     1.82100     1.80000     67.4032     154.004     2712.29     94.3390     196.288
     64.1000     101.504     1.80200     1.74900     79.0242     168.998     2707.44     94.3240     196.781
     64.1500     101.504     1.83800     1.65300     85.9979     155.002     2707.79     94.3080     199.251
     64.2000     101.564     1.81300     1.69100     106.915     174.997     2704.85     94.2960     199.251
     64.2500     101.522     1.86300     1.75900     72.0583     161.002     2707.44     94.2900     198.263
     64.3000     101.420     1.87600     1.76100     85.9969     192.995     2705.02     94.3080     196.781
     64.3500     101.289     1.87700     1.76900     88.3226     194.000     2700.53     94.3630     199.992
     64.4000     101.348     1.87900     1.77000     69.7318     153.006     2706.92     94.3760     196.288
     64.4500     101.444     1.87900     1.75600     109.236     135.003     2698.12     94.2750     197.028
     64.5000     101.402     1.87300     1.79300     72.0587     159.996     2711.08     94.3020     199.992
     64.5500     101.402     1.90000     1.79300     67.4057     156.001     2690.36     94.3050     200.733
     64.6000     101.366     1.96900     1.86800     83.6725     177.997     2692.59     94.2440     201.721
     64.6500     101.313     1.95700     1.78400     62.7592     135.007     2695.70     94.2570     202.956
     64.7000     101.414     1.94800     1.74000     90.6437     170.995     2705.54     94.2870     203.450
     64.7500     101.330     1.92800     1.79200     97.6199     155.002     2703.99     94.2570     203.450
     64.8000     101.307     1.92300     1.85000     60.4377     168.998     2697.08     94.2960     203.697
     64.8500     101.307     1.88300     1.75200     83.6715     164.001     2708.31     94.2990     199.993
     64.9000     101.432     1.95500     1.76000     106.914     170.999     2727.73     94.3050     196.535
     64.9500     101.468     1.84500     1.69600     74.3830     159.002     2705.89     94.3120     195.052
     65.0000     101.372     1.91300     1.73800     60.4341     157.000     2703.64     94.2990     192.335
     65.0500     101.354     1.93000     1.75100     83.6715     166.998     2703.81     94.2380     195.792
     65.1000     101.372     1.92000     1.77700     74.3794     144.004     2685.37     94.2440     196.287
     65.1500     101.360     1.94000     1.80800     85.9972     162.997     2700.53     94.2350     189.372
     65.2000     101.253     1.93100     1.83000     92.9709     145.003     2696.56     94.2320     192.828
     65.2500     101.121     1.89700     1.81800     74.3808     164.997     2684.16     94.2350     206.165
     65.3000     100.347     1.90200     1.84000     72.0534     169.999     2696.73     94.2630     204.685
     65.3500     100.473     1.88100     1.85900     76.7013     146.004     2703.47     94.2470     237.037
     65.4000     100.725     1.86500     1.82900     81.3503     149.999     2703.29     94.2260     203.455
     65.4500     100.797     1.82100     1.71700     99.9422     173.996     2698.80     94.2230     190.361
     65.5000     100.551     1.78400     1.68500     65.0853     166.001     2705.71     94.2470     187.395
     65.5500     100.647     1.83100     1.71900     72.0519     189.996     2696.56     94.2750     194.557
     65.6000     100.893     1.89400     1.73600     83.6732     167.004     2690.53     94.2630     191.347
     65.6500     100.593     1.87000     1.66900     88.3223     151.002     2709.52     94.2350     203.201
     65.7000     100.665     1.88800     1.72200     81.3521     153.000     2684.34     94.2170     202.215
     65.7500     100.695     1.88100     1.82500     83.6747     146.001     2691.56     94.1830     205.179
     65.8000     100.713     1.94100     1.84600     51.1400     162.997     2699.32     94.2170     207.649
     65.8500     100.563     1.93100     1.77000     74.3745     168.999     2710.38     94.1990     202.710
     65.9000     100.521     1.87900     1.72200     99.9411     174.999     2711.60     94.1410     197.770
     65.9500     100.683     1.88300     1.77700     88.3248     159.002     2717.49     94.1350     202.214
     66.0000     100.629     1.87200     1.79600     67.4082     169.998     2714.72     94.1470     200.239
     66.0500     100.929     1.91500     1.80400     74.3769     162.001     2719.22     94.1440     199.251
     66.1000     100.845     1.88800     1.79000     81.3499     178.997     2723.04     94.0860     203.202
     66.1500     100.821     1.90200     1.76600     85.9983     169.002     2724.78     94.1130     203.203
     66.2000     100.869     1.85800     1.75300     88.3226     155.002     2737.66     94.1250     195.794
     66.2500     100.725     1.86500     1.70700     88.3230     191.994     2732.78     94.1160     193.323
     66.3000     100.731     1.89200     1.76300     81.3521     189.000     2734.00     94.2110     198.262
     66.3500     100.737     1.92500     1.76800     65.0825     192.999     2736.61     94.1070     196.781
     66.4000     100.809     1.95300     1.69100     83.6722     204.998     2742.02     94.0700     194.558
     66.4500     100.719     1.89300     1.70300     104.590     168.006     2738.88     94.0670     200.485
     66.5000     100.773     1.93700     1.76100     81.3545     161.001     2738.01     94.0280     200.239
     66.5500     100.737     1.90900     1.80200     67.4071     187.996     2741.50     94.0520     201.227
     66.6000     100.749     1.94800     1.86400     76.7006     177.002     2738.88     94.0340     193.324
