#------------------------------------------------------------
~VERSION INFORMATION
VERS.               2.0  :CWLS LOG ASCII STANDARD - VERSION 2.0
WRAP.                NO  :ONE LINE PER DEPTH STEP
#------------------------------------------------------------
~WELL INFORMATION
STRT.M        0.0500000  :FIRST INDEX VALUE
STOP.M          136.600  :LAST INDEX VALUE
STEP.M        0.0500000  :STEP
NULL.            -99999  :NULL VALUE
COMP.                    :COMP
WELL.        Scorpio E1  :WELL
FLD.                     :
LOC.             Mt Eba  :LOC
SRVC.                    :
CTRY.                    :
STAT.                SA  :STAT
CNTY.                    :
DATE.        15/03/2015  :DATE
UWI.           6038-187  :WUNT
#------------------------------------------------------------
~CURVE INFORMATION
DEPT.M                   :DEPTH
CALI.MM                  :CALI
DFAR.G/CM3               :DFAR
DNEAR.G/CM3              :DNEAR
GAMN.GAPI                :GAMN
NEUT.CPS                 :NEUT
PR.OHM/M                 :PR
SP.MV                    :SP
COND.MS/M                :COND
#------------------------------------------------------------
~PARAMETER INFORMATION
BS.              216 mm  :BS
JOBN.                    :JOBN
WPMT.                    :WPMT
AGL.                     :AGL
PURP. Cased hole stratigraphy  :PURP
X.              0560160  :X
CSGL.       0 m - 135 m  :CSGL
UNIT.                    :UNIT
Y.              6686430  :Y
TDL.            135.2 m  :TDL
PROD.                    :PROD
MUD.              Water  :MUD
CSGS.            100 mm  :CSGS
ENG.                     :ENG
STEP.              5 cm  :STEP
FluidLevel.        54 m  :FluidLevel
CSGT.               PVC  :CSGT
WIT.                     :WIT
EREF.                    :EREF
PROJ.                    :PROJ
ZONE.               53J  :ZONE
DREF.                GL  :DREF
TDD.              136 m  :TDD
#------------------------------------------------------------
~OTHER
#------------------------------------------------------------
~A   DEPT[M]        CALI        DFAR       DNEAR        GAMN        NEUT          PR          SP        COND
# ...
     81.4500     101.534     1.74800     1.49800     72.0530     158.000     2671.11     93.6860     201.227
     81.5000     101.534     1.73700     1.47900     81.3496     157.000     2668.20     93.6890     201.968
     81.5500     101.516     1.73500     1.54900     81.3510     161.998     2679.69     93.7160     211.351
     81.6000     101.564     1.81300     1.60200     69.7308     176.998     2667.86     93.6710     214.071
     81.6500     101.612     1.84800     1.67700     65.0807     142.005     2669.06     93.7130     220.986
     81.7000     101.408     1.86000     1.75500     65.0800     147.000     2662.55     93.7620     230.620
     81.7500     101.336     1.92900     1.79700     69.7283     161.998     2662.89     93.7130     235.065
     81.8000     101.480     1.86500     1.83600     83.6707     157.002     2665.46     93.7260     233.831
     81.8500     101.528     1.90700     1.89200     83.6750     161.999     2652.82     93.6890     232.843
     81.9000     101.528     1.82000     1.79100     99.9425     151.002     2672.99     93.6950     227.163
     81.9500     101.600     1.76800     1.72800     74.3780     171.000     2661.35     93.7190     224.692
     82.0000     101.444     1.76600     1.66700     76.7016     168.000     2654.69     93.7650     224.939
     82.0500     101.402     1.74400     1.68700     83.6729     169.000     2660.67     93.7350     219.507
     82.1000     101.498     1.75700     1.68900     72.0548     175.999     2665.80     93.7320     219.752
     82.1500     101.492     1.74800     1.61300     74.3776     151.004     2664.09     93.7590     219.011
     82.2000     101.546     1.70900     1.61600     97.6210     177.000     2668.54     93.7350     222.716
     82.2500     101.486     1.71000     1.53200     48.8174     164.002     2669.06     93.7680     219.505
     82.3000     101.426     1.68700     1.55000     79.0168     174.997     2670.77     93.8020     221.974
     82.3500     101.600     1.69100     1.54400     55.7865     173.000     2684.67     93.7900     223.704
     82.4000     101.444     1.70200     1.53400     74.3752     158.002     2664.27     93.7990     213.085
     82.4500     101.474     1.69600     1.45100     85.9990     148.000     2668.20     93.8020     213.083
     82.5000     101.516     1.70900     1.42500     90.6473     155.999     2674.88     93.7870     212.095
     82.5500     101.540     1.70600     1.49000     53.4703     164.997     2662.21     93.7680     207.650
     82.6000     101.528     1.76400     1.60700     60.4309     179.998     2666.49     93.7500     205.673
     82.6500     101.540     1.84800     1.69400     74.3759     177.000     2669.91     93.7500     204.685
     82.7000     101.534     1.82900     1.68100     74.3780     170.000     2665.46     93.7740     209.131
     82.7500     101.564     1.82900     1.70300     88.3209     154.002     2670.60     93.7930     209.872
     82.8000     101.576     1.83200     1.72800     72.0580     178.992     2665.46     93.7740     210.613
     82.8500     101.600     1.83400     1.77100     85.9969     161.003     2669.57     93.7680     219.010
     82.9000     101.462     1.82500     1.72300     90.6473     163.000     2657.08     93.7810     227.408
     82.9500     101.480     1.84500     1.75100     55.7830     158.000     2669.57     93.7840     229.879
     83.0000     101.600     1.87700     1.73100     51.1357     163.999     2666.32     93.7620     223.458
     83.0500     101.618     1.80900     1.71600     67.4000     165.999     2651.97     93.7290     218.025
     83.1000     101.600     1.84200     1.71200     69.7286     156.002     2649.75     93.7440     215.059
     83.1500     101.546     1.82300     1.72000     62.7571     135.003     2661.35     93.7350     219.504
     83.2000     101.492     1.78000     1.69100     95.2960     123.000     2664.09     93.8080     206.661
     83.2500     101.390     1.70700     1.66000     72.0565     125.000     2662.04     93.7530     238.766
     83.3000     101.277     1.62100     1.65500     85.9947     127.999     2665.63     93.7770     260.500
     83.3500     100.473     1.65200     1.62000     92.9709     135.999     2666.66     93.7930     281.252
     83.4000     101.313     1.54900     1.49200     74.3808     134.000     2662.04     93.7960     262.239
     83.4500     101.504     1.55200     1.43700     97.6210     134.000     2663.06     93.7810     245.687
     83.5000     101.468     1.54900     1.40200     48.8174     146.998     2682.44     93.7500     228.894
     83.5500     101.468     1.54600     1.38300     74.3702     119.009     2673.52     93.8170     234.817
     83.6000     101.474     1.49800     1.35000     76.7017     143.996     2667.34     93.7870     251.612
     83.6500     101.480     1.51600     1.37500     62.7581     148.999     2670.94     93.7810     254.332
     83.7000     101.444     1.47700     1.32700     83.6750     110.000     2667.51     93.7810     262.977
     83.7500     101.408     1.51100     1.32400     69.7311     108.000     2664.95     93.7740     270.633
     83.8000     101.354     1.50700     1.29600     69.7290     128.994     2665.46     93.7290     264.708
     83.8500     101.492     1.47100     1.30400     118.532     138.998     2660.50     93.7560     253.099
     83.9000     101.444     1.44200     1.32000     53.4689     148.998     2667.00     93.7870     235.316
     83.9500     101.480     1.46600     1.30800     62.7560     138.000     2672.31     93.7810     213.577
     84.0000     101.336     1.52500     1.25500     72.0516     144.999     2659.99     93.7650     197.277
     84.0500     101.324     1.55800     1.22000     60.4355     142.001     2680.20     93.7930     193.818
     84.1000     101.522     1.65200     1.33100     76.6995     138.001     2653.67     93.7710     195.793
     84.1500     101.420     1.71900     1.51700     58.1098     144.999     2656.57     93.7650     203.696
     84.2000     101.444     1.73100     1.67000     65.0800     153.000     2664.43     93.7900     211.354
     84.2500     101.396     1.73900     1.66700     83.6722     163.998     2663.41     93.7770     216.293
     84.3000     101.372     1.77500     1.67100     76.7041     189.992     2668.20     93.7740     214.812
     84.3500     101.498     1.77400     1.67300     58.1098     167.004     2668.89     93.6280     212.095
     84.4000     101.498     1.78800     1.64700     67.4036     173.999     2669.23     93.6070     214.071
     84.4500     101.444     1.77800     1.63700     79.0260     165.000     2670.94     93.6310     220.740
     84.5000     101.498     1.77200     1.66600     76.7024     147.003     2662.21     93.6890     220.493
     84.5500     101.444     1.75200     1.71600     67.4078     171.992     2677.97     93.5970     223.209
     84.6000     101.426     1.69600     1.69000     81.3489     149.004     2674.37     93.6190     230.619
     84.6500     101.414     1.71400     1.55200     67.4071     171.996     2679.86     93.5640     227.903
     84.7000     101.504     1.67900     1.47400     90.6480     172.000     2671.97     93.6190     221.728
     84.7500     101.516     1.71800     1.47600     58.1120     152.003     2667.34     93.6100     219.752
     84.8000     101.516     1.73300     1.51800     81.3439     167.995     2668.54     93.6070     222.468
     84.8500     101.504     1.72100     1.55000     88.3219     193.996     2670.25     93.5790     223.457
     84.9000     101.516     1.76900     1.58700     72.0555     190.001     2665.46     93.5820     223.704
     84.9500     101.558     1.77200     1.62900     72.0530     183.000     2678.83     93.6100     223.704
     85.0000     101.504     1.80000     1.64300     74.3776     185.000     2667.52     93.6100     226.174
     85.0500     101.474     1.85300     1.76500     74.3780     189.998     2656.92     93.5730     223.952
     85.1000     101.474     1.85700     1.77700     113.885     180.002     2671.62     93.5670     220.987
