#------------------------------------------------------------
~VERSION INFORMATION
VERS.               2.0  :CWLS LOG ASCII STANDARD - VERSION 2.0
WRAP.                NO  :ONE LINE PER DEPTH STEP
#------------------------------------------------------------
~WELL INFORMATION
STRT.M        0.0500000  :FIRST INDEX VALUE
STOP.M          136.600  :LAST INDEX VALUE
STEP.M        0.0500000  :STEP
NULL.            -99999  :NULL VALUE
COMP.                    :COMP
WELL.        Scorpio E1  :WELL
FLD.                     :
LOC.             Mt Eba  :LOC
SRVC.                    :
CTRY.                    :
STAT.                SA  :STAT
CNTY.                    :
DATE.        15/03/2015  :DATE
UWI.           6038-187  :WUNT
#------------------------------------------------------------
~CURVE INFORMATION
DEPT.M                   :DEPTH
CALI.MM                  :CALI
DFAR.G/CM3               :DFAR
DNEAR.G/CM3              :DNEAR
GAMN.GAPI                :GAMN
NEUT.CPS                 :NEUT
PR.OHM/M                 :PR
SP.MV                    :SP
COND.MS/M                :COND
#------------------------------------------------------------
~PARAMETER INFORMATION
BS.              216 mm  :BS
JOBN.                    :JOBN
WPMT.                    :WPMT
AGL.                     :AGL
PURP. Cased hole stratigraphy  :PURP
X.              0560160  :X
CSGL.       0 m - 135 m  :CSGL
UNIT.                    :UNIT
Y.              6686430  :Y
TDL.            135.2 m  :TDL
PROD.                    :PROD
MUD.              Water  :MUD
CSGS.            100 mm  :CSGS
ENG.                     :ENG
STEP.              5 cm  :STEP
FluidLevel.        54 m  :FluidLevel
CSGT.               PVC  :CSGT
WIT.                     :WIT
EREF.                    :EREF
PROJ.                    :PROJ
ZONE.               53J  :ZONE
DREF.                GL  :DREF
TDD.              136 m  :TDD
#------------------------------------------------------------
~OTHER
#------------------------------------------------------------
~A   DEPT[M]        CALI        DFAR       DNEAR        GAMN        NEUT          PR          SP        COND
# ...
     96.2500     101.420     1.84700     1.82500     88.3251     143.001     2662.72     92.2880     391.416
     96.3000     101.396     1.94000     1.82800     74.3823     139.001     2667.17     92.3340     396.355
     96.3500     101.396     1.89800     1.81100     118.532     114.004     2676.60     92.3000     396.357
     96.4000     101.372     1.84000     1.81900     106.920     138.996     2657.43     92.3520     400.802
     96.4500     101.366     1.85100     1.78700     99.9450     133.000     2669.40     92.4160     406.237
     96.5000     101.378     1.77300     1.74900     79.0292     127.001     2667.69     92.4410     400.804
     96.5500     101.408     1.75200     1.75500     97.6153     128.999     2667.00     92.4380     401.050
     96.6000     101.396     1.72900     1.69200     102.268     132.999     2667.17     92.4290     396.358
     96.6500     101.408     1.71500     1.65300     120.861     142.998     2641.58     92.5600     389.442
     96.7000     101.408     1.71400     1.59700     106.918     125.000     2663.41     92.7400     390.429
     96.7500     101.408     1.70800     1.62300     102.270     152.996     2658.62     92.9080     390.429
     96.8000     101.396     1.67900     1.51500     97.6224     140.004     2676.08     93.0729     389.935
     96.8500     101.480     1.71700     1.49400     81.3535     148.999     2650.43     93.1370     389.441
     96.9000     101.444     1.75100     1.54600     102.266     145.001     2655.37     93.0420     386.971
     96.9500     101.504     1.77900     1.56900     113.891     180.000     2657.59     92.9810     385.983
     97.0000     101.432     1.84100     1.59300     88.3269     167.002     2662.72     93.0020     384.748
     97.0500     101.456     1.82700     1.65400     109.236     147.006     2661.87     92.9990     378.575
     97.1000     101.402     1.92900     1.71600     109.242     172.996     2687.08     93.0080     379.067
     97.1500     101.408     1.97100     1.82500     99.9464     173.000     2670.94     92.9930     380.055
     97.2000     101.408     2.03400     1.89600     90.6480     171.000     2667.51     93.0150     387.959
     97.2500     101.462     2.03700     1.97400     90.6480     165.001     2655.38     93.0110     390.923
     97.3000     101.492     2.06600     1.94200     99.9422     194.991     2650.09     93.0450     395.862
     97.3500     101.546     2.04200     1.98400     95.2967     204.998     2662.89     93.0390     395.863
     97.4000     101.540     2.03900     1.97300     90.6487     183.003     2673.00     93.1030     397.345
     97.4500     101.528     2.07900     1.98900     99.9450     216.000     2668.03     93.1240     392.899
     97.5000     101.558     2.09800     1.99600     92.9731     217.000     2665.80     93.0850     393.393
     97.5500     101.522     2.11200     1.97900     104.589     196.006     2667.00     93.0970     392.899
     97.6000     101.552     2.07400     2.01200     102.269     172.004     2644.98     93.0450     391.664
     97.6500     101.492     2.08400     2.03300     88.3251     200.996     2662.21     93.0330     389.688
     97.7000     101.516     2.07900     2.03400     69.7290     210.000     2655.89     93.0330     389.688
     97.7500     101.510     2.11200     1.99600     81.3492     178.005     2662.55     93.0300     388.206
     97.8000     101.504     2.05600     1.99900     109.233     169.003     2656.91     92.9630     384.255
     97.8500     101.498     1.99500     2.00200     74.3833     175.999     2660.16     92.9350     384.995
     97.9000     101.504     1.97100     1.95400     97.6175     201.996     2670.60     92.9870     381.538
     97.9500     101.504     1.97700     1.92600     74.3780     194.000     2654.86     93.0050     375.609
     98.0000     101.600     1.94000     1.91900     97.6175     175.003     2650.60     93.0180     368.694
     98.0500     101.600     1.99800     1.84500     99.9443     187.996     2655.54     93.0110     364.989
     98.1000     101.606     1.96600     1.79100     99.9450     194.999     2661.18     92.9930     369.186
     98.1500     101.588     1.98200     1.80100     106.917     205.998     2659.65     92.9630     372.151
     98.2000     101.600     1.98800     1.83900     62.7560     202.000     2659.65     92.9260     377.091
     98.2500     101.648     2.05600     1.84100     95.2910     243.994     2661.01     92.9440     373.634
     98.3000     101.570     2.00600     1.87300     81.3553     245.999     2665.12     92.9440     363.509
     98.3500     101.600     1.96200     1.93800     55.7869     243.000     2650.43     92.9500     359.061
     98.4000     101.618     2.03900     1.95300     74.3752     239.001     2667.85     92.9080     347.947
     98.4500     101.570     2.06300     2.02100     83.6750     238.000     2666.32     92.9320     336.830
     98.5000     101.600     2.07300     1.98800     67.4075     256.997     2667.86     92.8470     327.445
     98.5500     101.570     2.00600     1.95000     83.6700     241.005     2661.70     92.8070     320.283
     98.6000     101.684     2.03900     1.95600     69.7311     225.002     2658.79     92.7980     315.095
     98.6500     101.570     2.10000     1.96600     67.4053     219.001     2681.23     92.8620     319.786
     98.7000     101.558     2.07100     1.97000     53.4590     215.000     2670.25     92.9020     321.763
     98.7500     101.576     2.09300     2.00100     90.6423     198.003     2657.43     92.9380     328.678
     98.8000     101.618     2.10700     1.97800     69.7354     210.996     2646.00     92.8770     332.630
     98.8500     101.618     2.10300     2.05900     88.3202     217.999     2659.47     92.8620     339.793
     98.9000     101.630     2.12500     2.06400     90.6476     216.000     2650.94     92.8410     339.053
     98.9500     101.588     2.11200     2.08200     88.3230     214.000     2660.33     92.8340     339.547
     99.0000     101.582     2.08300     1.98500     104.591     210.001     2657.60     92.8710     345.721
     99.0500     101.600     2.08400     1.99600     81.3581     205.002     2648.73     92.9230     344.981
     99.1000     101.648     2.04800     2.00000     79.0264     201.001     2651.79     92.9690     343.746
     99.1500     101.636     2.00600     1.96700     83.6743     191.002     2653.84     92.8860     339.054
     99.2000     101.636     2.04100     1.94800     102.269     207.000     2656.40     92.9080     338.559
     99.2500     101.636     2.02400     1.91100     120.861     183.004     2660.16     92.9380     338.559
     99.3000     101.612     1.99900     1.90000     79.0388     212.991     2661.18     92.9500     335.102
     99.3500     101.606     1.98800     1.90400     88.3216     194.003     2661.01     92.9050     333.619
     99.4000     101.636     1.98800     1.85500     74.3801     203.998     2664.78     92.9380     335.101
     99.4500     101.606     1.98200     1.87800     97.6210     194.000     2663.06     92.9230     329.667
     99.5000     101.672     2.01600     1.92500     92.9727     219.996     2665.80     92.9470     335.594
     99.5500     101.648     2.01600     1.86500     92.9720     188.010     2669.23     92.9320     334.113
     99.6000     101.672     2.03400     1.87300     118.535     203.998     2648.73     92.9260     335.101
     99.6500     101.696     1.95400     1.84100     104.595     211.999     2661.35     92.9440     332.137
     99.7000     101.636     2.03100     1.87000     69.7290     216.000     2664.26     92.9200     333.619
     99.7500     101.636     1.93600     1.87500     88.3202     209.001     2639.19     92.8860     332.878
     99.8000     101.558     2.06800     1.90400     99.9415     250.987     2676.07     92.9530     334.853
     99.8500     101.528     1.98800     1.94500     76.7056     200.008     2653.84     92.9380     335.595
     99.9000     101.582     1.92100     1.90500     113.885     243.993     2661.18     92.9260     331.150
