#------------------------------------------------------------
~VERSION INFORMATION
VERS.               2.0  :CWLS LOG ASCII STANDARD - VERSION 2.0
WRAP.                NO  :ONE LINE PER DEPTH STEP
#------------------------------------------------------------
~WELL INFORMATION
STRT.M        0.0500000  :FIRST INDEX VALUE
STOP.M          136.600  :LAST INDEX VALUE
STEP.M        0.0500000  :STEP
NULL.            -99999  :NULL VALUE
COMP.                    :COMP
WELL.        Scorpio E1  :WELL
FLD.                     :
LOC.             Mt Eba  :LOC
SRVC.                    :
CTRY.                    :
STAT.                SA  :STAT
CNTY.                    :
DATE.        15/03/2015  :DATE
UWI.           6038-187  :WUNT
#------------------------------------------------------------
~CURVE INFORMATION
DEPT.M                   :DEPTH
CALI.MM                  :CALI
DFAR.G/CM3               :DFAR
DNEAR.G/CM3              :DNEAR
GAMN.GAPI                :GAMN
NEUT.CPS                 :NEUT
PR.OHM/M                 :PR
SP.MV                    :SP
COND.MS/M                :COND
#------------------------------------------------------------
~PARAMETER INFORMATION
BS.              216 mm  :BS
JOBN.                    :JOBN
WPMT.                    :WPMT
AGL.                     :AGL
PURP. Cased hole stratigraphy  :PURP
X.              0560160  :X
CSGL.       0 m - 135 m  :CSGL
UNIT.                    :UNIT
Y.              6686430  :Y
TDL.            135.2 m  :TDL
PROD.                    :PROD
MUD.              Water  :MUD
CSGS.            100 mm  :CSGS
ENG.                     :ENG
STEP.              5 cm  :STEP
FluidLevel.        54 m  :FluidLevel
CSGT.               PVC  :CSGT
WIT.                     :WIT
EREF.                    :EREF
PROJ.                    :PROJ
ZONE.               53J  :ZONE
DREF.                GL  :DREF
TDD.              136 m  :TDD
#------------------------------------------------------------
~OTHER
#------------------------------------------------------------
~A   DEPT[M]        CALI        DFAR       DNEAR        GAMN        NEUT          PR          SP        COND
# ...
     70.3500     100.875     1.87800     1.67300     81.3506     140.003     2739.40     93.8720     226.420
     70.4000     100.929     1.85800     1.74000     90.6466     154.998     2735.92     93.8570     234.324
     70.4500     100.809     1.83300     1.80400     85.9997     130.004     2719.92     93.8660     242.228
     70.5000     100.797     1.86200     1.82000     76.7034     135.999     2736.78     93.8750     249.144
     70.5500     101.055     1.85100     1.76300     81.3503     133.000     2739.23     93.8390     246.181
     70.6000     101.025     1.79400     1.61400     62.7588     162.995     2742.19     93.8540     242.230
     70.6500     101.043     1.80900     1.62400     81.3482     167.999     2725.65     93.8660     238.278
     70.7000     100.959     1.80300     1.66600     74.3780     149.000     2739.40     93.8390     232.350
     70.7500     100.953     1.84000     1.72300     48.8139     159.998     2738.36     93.8480     225.434
     70.8000     101.025     1.85300     1.76400     81.3411     174.995     2735.92     93.8420     214.073
     70.8500     101.073     1.84600     1.77800     79.0264     159.002     2719.92     93.8420     207.650
     70.9000     100.863     1.84700     1.77100     92.9699     143.002     2748.30     93.8020     205.920
     70.9500     100.887     1.82800     1.77700     67.4050     154.000     2737.14     93.7870     203.450
     71.0000     100.983     1.86600     1.75700     88.3198     176.996     2728.43     93.8320     200.980
     71.0500     100.893     1.83700     1.71300     88.3230     138.012     2727.91     93.8630     202.215
     71.1000     100.869     1.83500     1.65800     85.9994     170.995     2737.66     93.7870     208.142
     71.1500     100.863     1.85700     1.69200     92.9709     147.004     2724.78     93.8110     208.390
     71.2000     100.941     1.79700     1.77800     65.0800     126.000     2711.77     93.7870     199.498
     71.2500     100.653     1.82300     1.77100     67.4046     121.001     2719.57     93.7710     219.502
     71.3000     102.391     1.80300     1.73100     79.0225     131.997     2739.92     93.7500     218.023
     71.3500     100.755     1.78300     1.65800     81.3506     147.998     2734.35     93.8080     256.055
     71.4000     100.821     1.72700     1.66400     62.7588     143.001     2721.31     93.7530     229.883
     71.4500     100.845     1.74100     1.61800     81.3510     149.000     2723.39     93.7650     225.927
     71.5000     100.953     1.72800     1.53900     67.4071     155.999     2713.33     93.7500     210.862
     71.5500     100.893     1.70400     1.49300     67.4050     154.001     2735.21     93.7500     218.515
     71.6000     100.869     1.69900     1.44600     74.3769     157.000     2730.34     93.7260     223.703
     71.6500     101.007     1.70300     1.45100     74.3780     161.999     2738.35     93.7130     225.433
     71.7000     100.953     1.69700     1.50100     76.7020     171.000     2746.38     93.7100     221.234
     71.7500     100.911     1.79300     1.56400     62.7581     168.000     2735.40     93.7190     221.234
     71.8000     100.701     1.81800     1.69700     60.4327     166.001     2757.92     93.7260     208.147
     71.8500     100.845     1.86200     1.61000     79.0232     166.000     2734.87     93.7320     208.637
     71.9000     100.989     1.83400     1.71200     79.0260     148.003     2734.87     93.7160     212.835
     71.9500     100.989     1.80800     1.79400     76.7020     164.000     2731.74     93.6740     215.553
     72.0000     101.013     1.82200     1.76800     85.9976     123.006     2734.52     93.6800     215.800
     72.0500     101.025     1.82500     1.66100     58.1155     139.995     2742.71     93.6520     212.096
     72.1000     100.791     1.79200     1.55900     88.3184     146.999     2732.43     93.7350     208.638
     72.1500     100.923     1.78400     1.56400     81.3521     139.001     2743.41     93.6860     210.119
     72.2000     100.893     1.80000     1.58800     67.4050     123.000     2748.66     93.6550     216.541
     72.2500     100.827     1.77700     1.67200     90.6445     149.996     2730.35     93.6340     219.752
     72.3000     100.827     1.76300     1.73700     76.7063     139.003     2732.26     93.6130     222.221
     72.3500     100.917     1.74100     1.66900     79.0257     144.999     2740.10     93.6100     219.011
     72.4000     100.917     1.69600     1.49400     79.0260     122.004     2745.34     93.5640     222.962
     72.4500     101.007     1.70600     1.46800     83.6750     142.000     2749.35     93.6130     227.409
     72.5000     101.001     1.71500     1.51000     92.9706     151.998     2739.06     93.6340     228.891
     72.5500     100.983     1.68300     1.56800     76.7070     134.005     2750.05     93.6680     239.756
     72.6000     100.947     1.68900     1.60500     97.6178     138.999     2770.56     93.6580     250.625
     72.6500     100.911     1.73400     1.50500     62.7613     130.001     2749.71     93.6710     251.615
     72.7000     100.737     1.69900     1.51800     79.0260     135.000     2730.34     93.6370     246.675
     72.7500     100.941     1.69600     1.54100     65.0821     131.001     2752.85     93.6040     247.663
     72.8000     100.965     1.74100     1.65700     62.7567     118.004     2746.91     93.6100     250.379
     72.8500     100.965     1.70900     1.70400     90.6437     123.999     2758.28     93.5760     256.307
     72.9000     101.049     1.72800     1.75000     67.4085     135.998     2762.14     93.5970     256.802
     72.9500     100.971     1.69700     1.70000     83.6750     121.000     2748.66     93.5730     245.934
     73.0000     100.905     1.67100     1.57000     106.914     128.999     2752.15     93.5670     231.363
     73.0500     100.785     1.60000     1.38700     76.7112     127.001     2751.45     93.5820     228.645
     73.1000     100.905     1.62800     1.40700     67.4064     133.999     2744.29     93.6040     230.126
     73.1500     100.917     1.65200     1.49400     72.0523     154.997     2742.19     93.6130     235.312
     73.2000     100.785     1.71300     1.58400     53.4590     138.000     2741.15     93.5180     233.584
     73.2500     100.737     1.73900     1.54900     88.3177     137.000     2754.08     93.5640     234.819
     73.3000     100.893     1.69000     1.53200     72.0580     126.003     2754.78     93.5240     241.733
     73.3500     101.079     1.69200     1.54200     60.4338     150.996     2739.93     93.5090     248.156
     73.4000     100.791     1.71800     1.56000     97.6153     133.003     2734.52     93.4910     254.825
     73.4500     100.719     1.75000     1.57100     58.1070     150.000     2746.38     93.5000     257.790
     73.5000     100.803     1.75500     1.61500     81.3475     156.999     2744.64     93.4880     255.073
     73.5500     100.809     1.77700     1.65700     95.2917     160.999     2749.88     93.4570     249.641
     73.6000     100.857     1.87200     1.68300     81.3531     164.000     2749.53     93.4630     241.983
     73.6500     101.025     1.80900     1.72400     90.6466     159.001     2753.55     93.4510     236.549
     73.7000     100.851     1.81100     1.70000     81.3510     169.000     2745.34     93.4600     228.891
     73.7500     100.743     1.85200     1.74500     90.6466     172.999     2748.13     93.4230     224.693
     73.8000     100.821     1.84100     1.75000     109.236     182.997     2744.64     93.4200     224.198
     73.8500     100.689     1.90700     1.81500     60.4394     163.003     2751.10     93.3690     226.174
     73.9000     100.725     1.87000     1.76800     81.3478     170.999     2747.61     93.4270     230.372
     73.9500     100.731     1.85800     1.78900     95.2960     150.000     2745.86     93.3500     230.373
     74.0000     100.755     1.90300     1.78500     72.0565     145.001     2745.34     93.2980     228.891
