#------------------------------------------------------------
~VERSION INFORMATION
VERS.               2.0  :CWLS LOG ASCII STANDARD - VERSION 2.0
WRAP.                NO  :ONE LINE PER DEPTH STEP
#------------------------------------------------------------
~WELL INFORMATION
STRT.M        0.0500000  :FIRST INDEX VALUE
STOP.M          136.600  :LAST INDEX VALUE
STEP.M        0.0500000  :STEP
NULL.            -99999  :NULL VALUE
COMP.                    :COMP
WELL.        Scorpio E1  :WELL
FLD.                     :
LOC.             Mt Eba  :LOC
SRVC.                    :
CTRY.                    :
STAT.                SA  :STAT
CNTY.                    :
DATE.        15/03/2015  :DATE
UWI.           6038-187  :WUNT
#------------------------------------------------------------
~CURVE INFORMATION
DEPT.M                   :DEPTH
CALI.MM                  :CALI
DFAR.G/CM3               :DFAR
DNEAR.G/CM3              :DNEAR
GAMN.GAPI                :GAMN
NEUT.CPS                 :NEUT
PR.OHM/M                 :PR
SP.MV                    :SP
COND.MS/M                :COND
#------------------------------------------------------------
~PARAMETER INFORMATION
BS.              216 mm  :BS
JOBN.                    :JOBN
WPMT.                    :WPMT
AGL.                     :AGL
PURP. Cased hole stratigraphy  :PURP
X.              0560160  :X
CSGL.       0 m - 135 m  :CSGL
UNIT.                    :UNIT
Y.              6686430  :Y
TDL.            135.2 m  :TDL
PROD.                    :PROD
MUD.              Water  :MUD
CSGS.            100 mm  :CSGS
ENG.                     :ENG
STEP.              5 cm  :STEP
FluidLevel.        54 m  :FluidLevel
CSGT.               PVC  :CSGT
WIT.                     :WIT
EREF.                    :EREF
PROJ.                    :PROJ
ZONE.               53J  :ZONE
DREF.                GL  :DREF
TDD.              136 m  :TDD
#------------------------------------------------------------
~OTHER
#------------------------------------------------------------
~A   DEPT[M]        CALI        DFAR       DNEAR        GAMN        NEUT          PR          SP        COND
# ...
     25.9500     100.857     1.65500     1.93400     51.1387     818.009     50499.9     100.687     49.3221
     26.0000     100.725     1.65700     1.90400     74.3745     804.002     50499.9     100.751     49.5690
     26.0500     100.677     1.66400     1.90300     79.0257     751.004     50499.9     100.833     49.3220
     26.1000     100.677     1.64800     1.93000     99.9410     800.990     50499.9     100.861     49.3220
     26.1500     100.881     1.64300     1.91700     72.0562     837.996     50499.9     100.952     49.5690
     26.2000     100.821     1.70300     1.92800     76.7009     907.984     50499.9     101.031     49.5690
     26.2500     100.833     1.70100     1.95500     60.4345     888.003     50499.9     101.010     49.5690
     26.3000     101.067     1.68600     1.93200     55.7834     918.998     50499.9     100.912     50.5569
     26.3500     100.953     1.68700     1.95400     62.7547     933.997     49660.2     100.861     49.3222
     26.4000     100.947     1.71600     1.93700     83.6726     989.994     34830.8     101.126     49.5690
     26.4500     101.013     1.67700     1.94700     88.3219     900.021     37063.7     101.352     48.8282
     26.5000     100.905     1.64500     1.98200     69.7318     891.001     39025.1     101.309     48.8280
     26.5500     100.785     1.61800     1.95100     83.6739     887.000     40975.3     100.833     49.5689
     26.6000     100.887     1.59300     1.93000     88.3221     879.002     42937.1     100.711     50.5568
     26.6500     100.899     1.63400     1.88200     74.3796     849.003     43274.3     101.340     51.7919
     26.7000     100.833     1.61200     1.85200     118.529     984.969     46148.1     101.935     51.2981
     26.7500     100.659     1.62900     1.79600     106.920     931.008     44677.3     101.880     50.5571
     26.8000     100.833     1.59100     1.87300     86.0006     905.002     46236.6     101.633     50.0630
     26.8500     101.049     1.62200     1.86500     116.209     841.012     45074.0     101.340     50.0630
     26.9000     101.013     1.62400     1.84900     104.594     912.992     46465.3     100.903     48.0872
     26.9500     101.043     1.63800     1.82900     104.593     865.011     50012.4     100.723     50.0625
     27.0000     100.989     1.63100     1.89100     118.537     875.998     50499.8     100.433     49.3221
     27.0500     100.869     1.68000     1.85400     74.3814     850.002     50499.9     100.421     49.0750
     27.1000     100.977     1.67800     1.86700     81.3497     849.000     50499.9     100.433     49.0750
     27.1500     100.983     1.68000     1.90300     72.0541     798.006     50499.9     100.403     48.8280
     27.2000     100.827     1.70400     1.91200     106.910     847.989     50499.9     100.403     48.8280
     27.2500     100.803     1.66500     1.95600     90.6505     831.003     50499.9     100.366     48.5810
     27.3000     100.809     1.66300     1.91800     74.3792     824.001     50499.9     100.375     48.5810
     27.3500     100.923     1.67700     1.93400     72.0534     876.990     50499.9     100.409     49.0749
     27.4000     100.947     1.71500     1.96300     76.7015     877.000     50499.9     100.381     48.8280
     27.4500     100.731     1.71000     1.97600     72.0541     909.992     50499.9     100.406     48.5811
     27.5000     100.677     1.69900     1.93900     104.588     842.010     50499.9     100.452     49.8158
     27.5500     100.665     1.66100     1.92400     88.3242     853.999     50499.9     100.412     49.5690
     27.6000     100.857     1.63400     1.90900     83.6759     856.999     50499.9     100.458     50.5568
     27.6500     100.845     1.60400     1.87000     83.6750     913.993     50499.9     100.446     52.0388
     27.7000     100.857     1.62200     1.82100     123.179     888.006     50499.9     100.464     54.0145
     27.7500     100.695     1.63200     1.84500     104.596     952.990     50499.9     100.455     50.3106
     27.8000     100.629     1.65700     1.82300     99.9454     983.998     50499.9     100.455     49.5691
     27.8500     100.707     1.66700     1.87200     116.212     991.998     50499.9     100.461     49.5690
     27.9000     100.725     1.68200     1.89500     97.6231     949.005     50499.9     100.436     49.0751
     27.9500     100.731     1.65100     1.86700     120.859     980.993     50499.9     100.427     48.8281
     28.0000     100.653     1.66400     1.89800     102.272     977.001     50499.9     100.467     48.5810
     28.0500     100.695     1.67900     1.92400     74.3801     953.002     50499.9     100.488     48.8280
     28.1000     101.025     1.63900     1.93300     85.9968     935.003     50499.9     100.500     48.5810
     28.1500     100.977     1.62700     1.92200     60.4349     882.006     50499.9     100.516     49.0749
     28.2000     100.923     1.71400     1.87200     95.2880     862.005     50499.9     100.531     48.5811
     28.2500     100.959     1.66700     1.88700     79.0285     890.996     50499.9     100.650     48.3340
     28.3000     101.025     1.66700     1.86800     65.0811     839.004     50499.9     100.555     48.0870
     28.3500     100.995     1.63400     1.84300     99.9384     841.999     50499.9     100.580     48.0870
     28.4000     101.103     1.64100     1.87800     102.269     780.007     50499.9     100.592     48.5809
     28.4500     101.037     1.66400     1.93800     90.6507     761.004     50499.9     100.629     48.5810
     28.5000     101.085     1.70500     1.94100     79.0278     764.999     50499.9     100.659     49.3219
     28.5500     101.025     1.69900     1.93800     81.3508     770.000     50499.9     100.766     48.8280
     28.6000     101.043     1.70600     1.93500     72.0548     723.009     50499.9     100.882     49.3219
     28.6500     101.061     1.72100     1.93600     67.4055     770.995     50499.9     100.955     49.5690
     28.7000     101.061     1.69400     1.94700     69.7285     771.000     50499.9     100.995     49.5690
     28.7500     100.917     1.73200     1.92700     85.9965     755.002     50499.9     101.083     50.3099
     28.8000     100.917     1.74000     1.91300     74.3789     726.002     50499.9     101.013     53.7677
     28.8500     101.151     1.68300     1.89500     113.883     763.993     50499.9     100.983     49.8168
     28.9000     101.193     1.68600     1.91300     83.6785     706.007     50499.9     100.998     51.7918
     28.9500     101.097     1.73200     1.87100     65.0843     647.013     50499.9     100.977     51.5451
     29.0000     101.079     1.68000     1.85200     79.0239     600.007     48363.3     100.955     53.7677
     29.0500     101.157     1.70400     1.87800     92.9709     583.001     32142.0     101.019     55.0029
     29.1000     101.073     1.70600     1.91400     90.6484     523.011     26979.8     101.123     51.5457
     29.1500     101.073     1.69300     1.88400     72.0551     547.997     26603.9     101.355     58.7072
     29.2000     100.485     1.66400     1.87600     79.0244     561.997     29584.3     101.562     64.3877
     29.2500     100.845     1.69700     1.88300     74.3787     718.976     31890.6     101.483     74.7614
     29.3000     101.432     1.66900     1.84600     67.4055     734.999     43668.0     101.080     73.2811
     29.3500     101.450     1.66400     1.84900     106.910     765.994     50498.6     100.778     62.9090
     29.4000     101.420     1.67400     1.83600     92.9736     736.003     50499.9     100.656     53.5221
     29.4500     101.366     1.68200     1.80900     104.590     788.988     50499.9     100.623     54.5088
     29.5000     101.492     1.66900     1.79500     97.6221     815.996     50499.9     100.577     55.9908
     29.5500     101.618     1.70100     1.80800     106.917     837.998     50499.9     100.580     54.7561
     29.6000     101.474     1.71300     1.84900     76.7078     874.993     50499.9     100.595     52.2865
