#------------------------------------------------------------
~VERSION INFORMATION
VERS.               2.0  :CWLS LOG ASCII STANDARD - VERSION 2.0
WRAP.                NO  :ONE LINE PER DEPTH STEP
#------------------------------------------------------------
~WELL INFORMATION
STRT.M        0.0500000  :FIRST INDEX VALUE
STOP.M          136.600  :LAST INDEX VALUE
STEP.M        0.0500000  :STEP
NULL.            -99999  :NULL VALUE
COMP.                    :COMP
WELL.        Scorpio E1  :WELL
FLD.                     :
LOC.             Mt Eba  :LOC
SRVC.                    :
CTRY.                    :
STAT.                SA  :STAT
CNTY.                    :
DATE.        15/03/2015  :DATE
UWI.           6038-187  :WUNT
#------------------------------------------------------------
~CURVE INFORMATION
DEPT.M                   :DEPTH
CALI.MM                  :CALI
DFAR.G/CM3               :DFAR
DNEAR.G/CM3              :DNEAR
GAMN.GAPI                :GAMN
NEUT.CPS                 :NEUT
PR.OHM/M                 :PR
SP.MV                    :SP
COND.MS/M                :COND
#------------------------------------------------------------
~PARAMETER INFORMATION
BS.              216 mm  :BS
JOBN.                    :JOBN
WPMT.                    :WPMT
AGL.                     :AGL
PURP. Cased hole stratigraphy  :PURP
X.              0560160  :X
CSGL.       0 m - 135 m  :CSGL
UNIT.                    :UNIT
Y.              6686430  :Y
TDL.            135.2 m  :TDL
PROD.                    :PROD
MUD.              Water  :MUD
CSGS.            100 mm  :CSGS
ENG.                     :ENG
STEP.              5 cm  :STEP
FluidLevel.        54 m  :FluidLevel
CSGT.               PVC  :CSGT
WIT.                     :WIT
EREF.                    :EREF
PROJ.                    :PROJ
ZONE.               53J  :ZONE
DREF.                GL  :DREF
TDD.              136 m  :TDD
#------------------------------------------------------------
~OTHER
#------------------------------------------------------------
~A   DEPT[M]        CALI        DFAR       DNEAR        GAMN        NEUT          PR          SP        COND
# ...
     37.0500     101.366     1.64300     1.85200     53.4609     918.003     50499.9     100.449     49.5690
     37.1000     101.348     1.66800     1.85300     76.6985     925.999     50499.9     100.443     49.5690
     37.1500     101.324     1.68000     1.89200     60.4345     904.003     50499.9     100.476     49.0751
     37.2000     101.348     1.64700     1.88500     58.1075     930.994     50499.9     100.519     49.3219
     37.2500     101.265     1.66800     1.87700     58.1070     974.993     50499.9     100.519     48.3342
     37.3000     101.336     1.68600     1.89600     62.7556     959.001     50499.9     100.543     48.5810
     37.3500     101.103     1.67200     1.89200     58.1077     906.008     50499.9     100.616     48.0871
     37.4000     101.211     1.65800     1.90300     53.4597     939.995     50499.9     100.592     48.0870
     37.4500     101.133     1.67700     1.92100     46.4876     931.002     50499.9     100.592     48.5809
     37.5000     101.151     1.63900     1.95200     67.4018     952.997     50499.9     100.598     48.5810
     37.5500     101.175     1.70100     1.92200     69.7288     914.003     50499.9     100.616     48.0870
     37.6000     101.175     1.71000     1.91600     81.3492     910.001     50499.9     100.583     48.0870
     37.6500     101.169     1.67400     1.91300     72.0544     966.991     50499.9     100.629     48.5809
     37.7000     101.133     1.67700     1.90400     83.6723     953.003     50499.9     100.616     48.8279
     37.7500     101.055     1.66600     1.87300     69.7311     937.002     50499.9     100.601     48.3341
     37.8000     101.115     1.66400     1.90700     65.0804     917.002     50499.9     100.565     48.5810
     37.8500     101.091     1.66900     1.88500     60.4327     941.996     50499.9     100.632     49.3219
     37.9000     101.121     1.63000     1.88900     55.7837     942.000     50499.9     100.604     49.5690
     37.9500     101.085     1.64700     1.86500     55.7830     907.008     50499.9     100.604     48.5812
     38.0000     101.061     1.65000     1.86600     67.4032     933.996     50499.9     100.623     48.5810
     38.0500     101.133     1.62200     1.86500     44.1638     959.998     50499.9     100.610     49.0750
     38.1000     101.223     1.63400     1.81200     72.0487     913.007     50499.9     100.604     49.0750
     38.1500     101.241     1.60100     1.85400     74.3776     928.998     50499.9     100.589     49.5689
     38.2000     101.229     1.60600     1.82400     62.7587     919.002     50499.9     100.601     49.3221
     38.2500     101.187     1.62200     1.87600     55.7841     892.004     50499.9     100.623     49.3220
     38.3000     101.151     1.60000     1.86700     51.1354     917.998     50499.9     100.592     49.5690
     38.3500     101.247     1.64200     1.85900     67.4025     899.003     50499.9     100.568     50.3099
     38.4000     101.265     1.62000     1.85000     60.4331     909.998     50499.9     100.580     50.3100
     38.4500     101.247     1.63700     1.85200     55.7841     920.997     50499.9     100.562     50.3100
     38.5000     101.307     1.60000     1.82900     55.7830     859.009     50499.9     100.580     50.5570
     38.5500     101.289     1.60700     1.81200     67.4041     958.992     50499.9     100.589     51.5449
     38.6000     101.157     1.60800     1.78600     65.0804     933.004     50499.9     100.571     50.8041
     38.6500     101.336     1.59400     1.80700     53.4608     926.001     50499.9     100.653     50.3101
     38.7000     101.127     1.60800     1.80100     62.7539     872.012     50499.9     100.613     52.0386
     38.7500     101.205     1.57700     1.76600     51.1368     885.998     50499.9     100.681     52.0390
     38.8000     101.241     1.59800     1.75600     69.7276     884.000     50499.9     100.610     51.5450
     38.8500     101.199     1.55600     1.72200     83.6729     889.999     50499.9     100.601     52.0389
     38.9000     101.073     1.58100     1.69200     55.7873     904.998     50499.9     100.568     52.5329
     38.9500     101.001     1.54700     1.66900     74.3737     951.989     50499.9     100.458     53.5208
     39.0000     100.965     1.54000     1.66800     55.7858     844.016     50499.9     100.302     53.0271
     39.0500     101.109     1.54700     1.62500     88.3205     822.002     50499.9     100.244     55.2498
     39.1000     101.097     1.53100     1.62600     83.6757     763.009     50499.9     100.378     56.9787
     39.1500     101.091     1.51200     1.58400     60.4355     787.996     50499.9     100.427     56.9790
     39.2000     101.157     1.51500     1.56000     55.7841     693.022     50499.9     100.500     59.2015
     39.2500     101.145     1.49700     1.56700     46.4874     787.985     50499.9     100.482     67.1048
     39.3000     101.301     1.52300     1.55000     48.8098     786.000     50499.9     100.464     69.8228
     39.3500     101.187     1.50900     1.57200     58.1056     727.009     50499.9     100.467     80.1954
     39.4000     101.354     1.52900     1.60100     79.0228     738.998     50499.9     100.482     87.6059
     39.4500     101.354     1.52300     1.60300     90.6453     739.000     50499.9     100.467     94.2745
     39.5000     101.253     1.52600     1.66100     99.9436     697.006     50499.9     100.421     101.438
     39.5500     101.289     1.54200     1.65200     92.9725     718.998     50499.9     100.415     110.330
     39.6000     101.324     1.59300     1.73200     69.7325     716.000     50499.9     100.394     122.185
     39.6500     101.313     1.60400     1.76700     97.6167     709.001     50499.9     100.394     132.806
     39.7000     101.348     1.61700     1.77300     99.9445     707.000     50499.9     100.348     142.192
     39.7500     101.444     1.61300     1.81700     72.0573     684.004     50499.9     100.299     159.728
     39.8000     101.510     1.66300     1.80100     99.9429     667.001     50499.9     100.323     169.610
     39.8500     101.576     1.65900     1.83500     95.2967     674.999     50499.9     100.360     195.295
     39.9000     101.630     1.66400     1.87200     76.7048     660.002     50499.9     100.418     224.194
     39.9500     101.588     1.69100     1.87800     74.3785     654.001     50499.9     100.424     234.817
     40.0000     101.516     1.68600     1.89500     83.6736     634.003     50499.9     100.421     253.094
     40.0500     101.540     1.72600     1.90400     55.7851     658.998     50499.9     100.397     265.940
     40.1000     101.552     1.71700     1.94300     79.0225     620.006     50499.9     100.345     269.398
     40.1500     101.456     1.77200     1.95000     55.7865     631.998     50499.9     100.311     278.784
     40.2000     101.528     1.74600     1.92000     51.1361     602.007     50499.9     100.299     280.267
     40.2500     101.450     1.79300     1.91200     74.3745     609.999     50499.9     100.317     282.490
     40.3000     101.372     1.74300     1.96200     72.0532     592.001     50499.9     100.354     280.267
     40.3500     101.307     1.75800     1.99100     79.0249     610.997     50499.9     100.385     278.785
     40.4000     101.217     1.74200     1.95500     69.7304     631.997     50499.9     100.366     280.267
     40.4500     101.097     1.78400     1.98000     48.8148     605.006     50499.9     100.360     282.983
     40.5000     100.965     1.76100     2.02300     116.205     584.003     50499.9     100.345     289.405
     40.5500     100.749     1.75600     1.99300     99.9462     559.002     50499.9     100.336     299.038
     40.6000     100.755     1.75800     2.00800     83.6775     591.995     50499.9     100.388     299.533
     40.6500     100.737     1.81200     1.98400     65.0828     558.005     50499.9     100.385     297.310
     40.7000     100.767     1.71200     2.01600     72.0514     635.982     50499.9     100.421     297.310
