#------------------------------------------------------------
~VERSION INFORMATION
VERS.               2.0  :CWLS LOG ASCII STANDARD - VERSION 2.0
WRAP.                NO  :ONE LINE PER DEPTH STEP
#------------------------------------------------------------
~WELL INFORMATION
STRT.M        0.0500000  :FIRST INDEX VALUE
STOP.M          136.600  :LAST INDEX VALUE
STEP.M        0.0500000  :STEP
NULL.            -99999  :NULL VALUE
COMP.                    :COMP
WELL.        Scorpio E1  :WELL
FLD.                     :
LOC.             Mt Eba  :LOC
SRVC.                    :
CTRY.                    :
STAT.                SA  :STAT
CNTY.                    :
DATE.        15/03/2015  :DATE
UWI.           6038-187  :WUNT
#------------------------------------------------------------
~CURVE INFORMATION
DEPT.M                   :DEPTH
CALI.MM                  :CALI
DFAR.G/CM3               :DFAR
DNEAR.G/CM3              :DNEAR
GAMN.GAPI                :GAMN
NEUT.CPS                 :NEUT
PR.OHM/M                 :PR
SP.MV                    :SP
COND.MS/M                :COND
#------------------------------------------------------------
~PARAMETER INFORMATION
BS.              216 mm  :BS
JOBN.                    :JOBN
WPMT.                    :WPMT
AGL.                     :AGL
PURP. Cased hole stratigraphy  :PURP
X.              0560160  :X
CSGL.       0 m - 135 m  :CSGL
UNIT.                    :UNIT
Y.              6686430  :Y
TDL.            135.2 m  :TDL
PROD.                    :PROD
MUD.              Water  :MUD
CSGS.            100 mm  :CSGS
ENG.                     :ENG
STEP.              5 cm  :STEP
FluidLevel.        54 m  :FluidLevel
CSGT.               PVC  :CSGT
WIT.                     :WIT
EREF.                    :EREF
PROJ.                    :PROJ
ZONE.               53J  :ZONE
DREF.                GL  :DREF
TDD.              136 m  :TDD
#------------------------------------------------------------
~OTHER
#------------------------------------------------------------
~A   DEPT[M]        CALI        DFAR       DNEAR        GAMN        NEUT          PR          SP        COND
# ...
     133.250     101.456     1.55100     1.32600    -2324.28     128.000     115.508    -3.04900     631.254
     133.300     101.444     1.59400     1.34600    -2324.28     124.001     115.508    -3.04900     625.575
     133.350     101.444     1.57200     1.33100    -2324.28     162.988     115.508    -3.04900     614.955
     133.400     101.420     1.56200     1.35500    -2324.28     166.000     115.508    -3.04900     597.415
     133.450     101.426     1.57500     1.32400    -2324.28     145.000     115.508    -3.04900     581.113
     133.500     101.414     1.57300     1.33000    -2324.28     150.000     115.508    -3.04900     568.269
     133.550     101.408     1.57800     1.35500    -2324.28     150.000     115.508    -3.04900     567.775
     133.600     101.486     1.62000     1.36500    -2324.28     151.999     115.508    -3.04900     570.738
     133.650     101.516     1.61600     1.42300    -2324.28     142.000     115.508    -3.04900     571.974
     133.700     101.414     1.58900     1.37700    -2324.28     132.000     115.508    -3.04900     571.480
     133.750     101.396     1.65000     1.41100    -2324.28     149.000     115.508    -3.04900     564.070
     133.800     101.420     1.63500     1.35600    -2324.28     152.999     115.508    -3.04900     562.588
     133.850     101.420     1.60000     1.37700    -2324.28     150.001     115.508    -3.04900     562.835
     133.900     101.426     1.59500     1.34400    -2324.28     150.000     115.508    -3.04900     566.293
     133.950     101.426     1.61300     1.43300    -2324.28     152.000     115.508    -3.04900     572.715
     134.000     101.426     1.64300     1.40700    -2324.28     152.000     115.508    -3.04900     576.173
     134.050     101.432     1.60600     1.42600    -2324.28     113.012     115.508    -3.04900     578.148
     134.100     101.420     1.65200     1.38800    -2324.28     141.991     115.508    -3.04900     580.371
     134.150     101.408     1.62800     1.40400    -2324.28     128.000     115.508    -3.04900     581.113
     134.200     101.402     1.57600     1.41100    -2324.28     158.000     115.508    -3.04900     580.619
     134.250     101.336     1.60900     1.40500    -2324.28     131.000     115.508    -3.04900     584.571
     134.300     101.330     1.59600     1.41800    -2324.28     149.994     115.508    -3.04900     594.695
     134.350     101.336     1.63000     1.41700    -2324.28     139.003     115.508    -3.04900     601.612
     134.400     101.330     1.61600     1.41800    -2324.28     160.000     115.508    -3.04900     607.295
     134.450     101.313     1.61500     1.44400    -2324.28     129.000     115.508    -3.04900     608.777
     134.500     101.301     1.57700     1.38300    -2324.28     171.000     115.508    -3.04900     603.343
     134.550     101.289     1.60000     1.36800    -2324.28     138.010     115.508    -3.04900     594.948
     134.600     101.037     1.55500     1.39500    -2324.28     165.991     115.508    -3.04900     584.327
     134.650     100.983     1.56300     1.35700    -2324.28     158.000     115.508    -3.04900     578.643
     134.700     100.833     1.57000     1.35700    -99999.0    -99999.0    -99999.0    -99999.0     571.233
     134.750     93.7600     1.58200     1.37800    -99999.0    -99999.0    -99999.0    -99999.0     565.552
     134.800     88.0860     1.56100     1.36100    -99999.0    -99999.0    -99999.0    -99999.0     570.490
     134.850     86.4430     1.51600     1.33800    -99999.0    -99999.0    -99999.0    -99999.0     574.937
     134.900     79.6170     5.98900     1.35600    -99999.0    -99999.0    -99999.0    -99999.0     579.137
     134.950     65.2360     4.58700     1.39700    -99999.0    -99999.0    -99999.0    -99999.0    -99999.0
     135.000     55.8330     4.58700     1.35100    -99999.0    -99999.0    -99999.0    -99999.0    -99999.0
     135.050     49.0610     4.58700     1.32900    -99999.0    -99999.0    -99999.0    -99999.0    -99999.0
     135.100     49.0360    -99999.0    -99999.0    -99999.0    -99999.0    -99999.0    -99999.0    -99999.0
     135.150     49.0240    -99999.0    -99999.0    -99999.0    -99999.0    -99999.0    -99999.0    -99999.0
     135.200     49.0050    -99999.0    -99999.0    -99999.0    -99999.0    -99999.0    -99999.0    -99999.0
     135.250     48.9990    -99999.0    -99999.0    -99999.0    -99999.0    -99999.0    -99999.0    -99999.0
     135.300     48.9870    -99999.0    -99999.0    -99999.0    -99999.0    -99999.0    -99999.0    -99999.0
     135.350     48.9800    -99999.0    -99999.0    -99999.0    -99999.0    -99999.0    -99999.0    -99999.0
     135.400     48.9620    -99999.0    -99999.0    -99999.0    -99999.0    -99999.0    -99999.0    -99999.0
     135.450     48.9620    -99999.0    -99999.0    -99999.0    -99999.0    -99999.0    -99999.0    -99999.0
     135.500     48.9250    -99999.0    -99999.0    -99999.0    -99999.0    -99999.0    -99999.0    -99999.0
     135.550     48.9310    -99999.0    -99999.0    -99999.0    -99999.0    -99999.0    -99999.0    -99999.0
     135.600     48.9190    -99999.0    -99999.0    -99999.0    -99999.0    -99999.0    -99999.0    -99999.0
     135.650     48.9000    -99999.0    -99999.0    -99999.0    -99999.0    -99999.0    -99999.0    -99999.0
     135.700     48.8820    -99999.0    -99999.0    -99999.0    -99999.0    -99999.0    -99999.0    -99999.0
     135.750     48.8630    -99999.0    -99999.0    -99999.0    -99999.0    -99999.0    -99999.0    -99999.0
     135.800     48.8570    -99999.0    -99999.0    -99999.0    -99999.0    -99999.0    -99999.0    -99999.0
     135.850     48.8390    -99999.0    -99999.0    -99999.0    -99999.0    -99999.0    -99999.0    -99999.0
     135.900     48.8080    -99999.0    -99999.0    -99999.0    -99999.0    -99999.0    -99999.0    -99999.0
     135.950     48.8020    -99999.0    -99999.0    -99999.0    -99999.0    -99999.0    -99999.0    -99999.0
     136.000     48.7890    -99999.0    -99999.0    -99999.0    -99999.0    -99999.0    -99999.0    -99999.0
     136.050     48.7710    -99999.0    -99999.0    -99999.0    -99999.0    -99999.0    -99999.0    -99999.0
     136.100     48.7650    -99999.0    -99999.0    -99999.0    -99999.0    -99999.0    -99999.0    -99999.0
     136.150     48.7520    -99999.0    -99999.0    -99999.0    -99999.0    -99999.0    -99999.0    -99999.0
     136.200     48.7340    -99999.0    -99999.0    -99999.0    -99999.0    -99999.0    -99999.0    -99999.0
     136.250     48.6840    -99999.0    -99999.0    -99999.0    -99999.0    -99999.0    -99999.0    -99999.0
     136.300     48.6660    -99999.0    -99999.0    -99999.0    -99999.0    -99999.0    -99999.0    -99999.0
     136.350     48.6470    -99999.0    -99999.0    -99999.0    -99999.0    -99999.0    -99999.0    -99999.0
     136.400     48.6040    -99999.0    -99999.0    -99999.0    -99999.0    -99999.0    -99999.0    -99999.0
     136.450     48.5550    -99999.0    -99999.0    -99999.0    -99999.0    -99999.0    -99999.0    -99999.0
     136.500     48.5550    -99999.0    -99999.0    -99999.0    -99999.0    -99999.0    -99999.0    -99999.0
     136.550     48.4380    -99999.0    -99999.0    -99999.0    -99999.0    -99999.0    -99999.0    -99999.0
     136.600    -56.2750    -99999.0    -99999.0    -99999.0    -99999.0    -99999.0    -99999.0    -99999.0
