#------------------------------------------------------------
~VERSION INFORMATION
VERS.               2.0  :CWLS LOG ASCII STANDARD - VERSION 2.0
WRAP.                NO  :ONE LINE PER DEPTH STEP
#------------------------------------------------------------
~WELL INFORMATION
STRT.M        0.0500000  :FIRST INDEX VALUE
STOP.M          136.600  :LAST INDEX VALUE
STEP.M        0.0500000  :STEP
NULL.            -99999  :NULL VALUE
COMP.                    :COMP
WELL.        Scorpio E1  :WELL
FLD.                     :
LOC.             Mt Eba  :LOC
SRVC.                    :
CTRY.                    :
STAT.                SA  :STAT
CNTY.                    :
DATE.        15/03/2015  :DATE
UWI.           6038-187  :WUNT
#------------------------------------------------------------
~CURVE INFORMATION
DEPT.M                   :DEPTH
CALI.MM                  :CALI
DFAR.G/CM3               :DFAR
DNEAR.G/CM3              :DNEAR
GAMN.GAPI                :GAMN
NEUT.CPS                 :NEUT
PR.OHM/M                 :PR
SP.MV                    :SP
COND.MS/M                :COND
#------------------------------------------------------------
~PARAMETER INFORMATION
BS.              216 mm  :BS
JOBN.                    :JOBN
WPMT.                    :WPMT
AGL.                     :AGL
PURP. Cased hole stratigraphy  :PURP
X.              0560160  :X
CSGL.       0 m - 135 m  :CSGL
UNIT.                    :UNIT
Y.              6686430  :Y
TDL.            135.2 m  :TDL
PROD.                    :PROD
MUD.              Water  :MUD
CSGS.            100 mm  :CSGS
ENG.                     :ENG
STEP.              5 cm  :STEP
FluidLevel.        54 m  :FluidLevel
CSGT.               PVC  :CSGT
WIT.                     :WIT
EREF.                    :EREF
PROJ.                    :PROJ
ZONE.               53J  :ZONE
DREF.                GL  :DREF
TDD.              136 m  :TDD
#------------------------------------------------------------
~OTHER
#------------------------------------------------------------
~A   DEPT[M]        CALI        DFAR       DNEAR        GAMN        NEUT          PR          SP        COND
# ...
     7.45000     49.7650    0.989000    0.940000    -2324.28    -99999.0     115.508    -3.04900     1027.19
     7.50000     49.7650    0.974000    0.912000    -2324.28    -99999.0     115.508    -3.04900     1028.43
     7.55000     49.7650    0.982000    0.849000    -2324.28    -99999.0     115.508    -3.04900     1029.66
     7.60000     49.7650    0.949001    0.896999    -2324.28    -99999.0     115.508    -3.04900     1020.77
     7.65000     49.7650    0.963000    0.917000    -2324.28    -99999.0     115.508    -3.04900     1003.49
     7.70000     49.7650    0.962000    0.871000    -2324.28    -99999.0     115.508    -3.04900     992.617
     7.75000     49.7650    0.929000    0.912000    -2324.28    -99999.0     115.508    -3.04900     992.615
     7.80000     49.7650    0.938000    0.903000    -2324.28    -99999.0     115.508    -3.04900     1004.96
     7.85000     49.7650    0.930000    0.924999    -2324.28    -99999.0     50490.7     100.530     1027.19
     7.90000     49.7650    0.933000    0.798000    -2324.28    -99999.0     50499.9     100.531     1034.11
     7.95000     49.7650    0.937000    0.853000    -2324.28    -99999.0     50499.9     100.592     1049.18
     8.00000     49.7650    0.944000    0.845000    -2324.28    -99999.0     50499.9     100.580     1051.89
     8.05000     49.7650    0.957000    0.897000    -2324.28    -99999.0     50499.9     100.552     1050.41
     8.10000     49.7650    0.957000    0.887000    -2324.28    -99999.0     50499.9     100.562     1050.91
     8.15000     49.7650    0.948000    0.848000    -2324.28    -99999.0     50499.9     100.552     1052.39
     8.20000     49.7650    0.946000    0.847000    -2324.28    -99999.0     50499.9     100.592     1055.85
     8.25000     49.7650    0.948000    0.851000    -2324.28    -99999.0     50499.9     100.613     1058.81
     8.30000     49.7650    0.958000    0.801000     76.4729    -99999.0     50499.9     100.558     1060.29
     8.35000     49.7650    0.943001    0.849998     39.5236    -99999.0     50499.9     100.568     1057.82
     8.40000     49.7650    0.940000    0.885000     58.1049    -99999.0     50499.9     100.549     1052.14
     8.45000     49.7650    0.946000    0.867000     44.1644    -99999.0     50499.9     100.568     1044.73
     8.50000     49.7650    0.933000    0.852000     41.8374    -99999.0     50499.9     100.555     1041.52
     8.55000     49.7650    0.909000    0.847000     74.3749    -99999.0     50499.9     100.558     1029.67
     8.60000     49.7650    0.935999    0.887998     34.8756    -99999.0     50499.9     100.568     1019.54
     8.65000     101.690    0.915000    0.800000     51.1331    -99999.0     50499.9     100.525     1011.88
     8.70000     101.648    0.911000    0.814000     51.1355    -99999.0     50499.9     100.540     1008.18
     8.75000     101.720    0.932000    0.859000     53.4586    -99999.0     50499.9     100.571     1009.41
     8.80000     101.774    0.932000    0.824000     53.4590    -99999.0     50499.9     100.574     1014.10
     8.85000     101.780    0.926000    0.865998     83.6613    -99999.0     50499.9     100.604     1017.07
     8.90000     101.786    0.935000    0.835000     41.8418    -99999.0     50499.9     100.555     1012.87
     8.95000     101.672    0.933000    0.853000     79.0167    -99999.0     50499.9     100.571     1002.50
     9.00000     101.654    0.924000    0.894000     72.0541    -99999.0     50499.9     100.568     996.815
     9.05000     101.732    0.911000    0.889000     69.7292    -99999.0     50499.9     100.562     986.194
     9.10000     101.762    0.903000    0.846002     83.6657    -99999.0     50499.9     100.571     995.332
     9.15000     101.672    0.911000    0.891000     48.8140    -99999.0     50499.9     100.552     1002.74
     9.20000     101.672    0.914000    0.882000     46.4870    -99999.0     50499.9     100.571     1007.93
     9.25000     101.672    0.911000    0.838000     48.8096    -99999.0     50499.9     100.568     1018.30
     9.30000     101.564    0.914000    0.876000     81.3479    -99999.0     50499.9     100.574     1018.80
     9.35000     101.522    0.912000    0.877000     44.1740    -99999.0     50499.9     100.552     1013.86
     9.40000     101.516    0.932000    0.899000     69.7261    -99999.0     50499.9     100.565     1008.92
     9.45000     101.540    0.895000    0.889000     62.7609    -99999.0     50499.9     100.571     1008.42
     9.50000     101.570    0.894000    0.839000     79.0235    -99999.0     50499.9     100.558     1009.41
     9.55000     101.570    0.881000    0.922000     92.9707    -99999.0     50499.9     100.555     1008.42
     9.60000     101.564    0.920998    0.833003     62.7618    -99999.0     50499.9     100.555     1002.00
     9.65000     101.624    0.928000    0.869000     44.1641    -99999.0     50499.9     100.522     999.531
     9.70000     101.612    0.942000    0.870000     62.7501    -99999.0     50499.9     100.562     994.593
     9.75000     101.564    0.946000    0.876000     53.4604    -99999.0     50499.9     100.552     997.555
     9.80000     101.678    0.913000    0.878000     51.1352    -99999.0     50499.9     100.562     997.555
     9.85000     101.720    0.913000    0.858001     69.7254    -99999.0     50499.9     100.534     991.134
     9.90000     101.678    0.902000    0.792000     67.4053    -99999.0     50499.9     100.558     982.736
     9.95000     101.462    0.906000    0.829000     39.5189    -99999.0     50499.9     100.577     979.277
     10.0000     101.576    0.912000    0.828000     39.5130    -99999.0     50499.9     100.555     974.091
     10.0500     101.516    0.901000    0.835000     55.7814    -99999.0     50499.9     100.543     962.482
     10.1000     101.564    0.892000    0.804001     46.4878     1131.00     50499.9     100.558     951.615
     10.1500     101.582    0.897000    0.815000     55.7819     1179.99     50499.9     100.565     945.192
     10.2000     101.660    0.881000    0.804000     76.6898     1137.02     50499.9     100.580     931.360
     10.2500     101.678    0.879000    0.800000     39.5187     1190.99     50499.9     100.562     922.962
     10.3000     101.630    0.911000    0.802000     32.5407     1182.00     50499.9     100.568     918.268
     10.3500     101.468    0.898000    0.810000     55.7786     1140.01     50499.9     100.549     907.402
     10.4000     101.205    0.901000    0.868000     60.4315     1133.00     50499.9     100.574     899.003
     10.4500     101.336    0.895000    0.878000     62.7506     1151.01     50499.9     100.577     895.543
     10.5000     101.283    0.910000    0.874000     39.5165     1210.99     50499.9     100.580     886.900
     10.5500     101.301    0.910000    0.883000     58.1052     1162.00     50499.9     100.574     881.466
     10.6000     101.408    0.901000    0.852001     55.7834     1151.00     50499.9     100.549     872.822
     10.6500     101.426    0.904000    0.813000     51.1355     1273.99     50499.9     100.549     867.634
     10.7000     101.468    0.884000    0.782000     55.7820     1216.01     50499.9     100.571     863.435
     10.7500     101.444    0.875000    0.783000     60.4313     1157.01     50499.9     100.574     858.742
     10.8000     101.318    0.873000    0.856000     65.0796     1157.00     50499.9     100.552     858.247
     10.8500     101.444    0.876000    0.886999     69.7281     1015.03     50499.9     100.482     858.247
     10.9000     101.396    0.882000    0.843000     58.1083     1032.00     50499.9     100.543     873.806
     10.9500     101.468    0.883000    0.859000     74.3746     1015.00     50499.9     100.540     901.713
     11.0000     101.336    0.891000    0.850000     48.8139     985.005     50499.9     100.562     918.512
     11.0500     101.354    0.923000    0.785000     51.1348     947.004     50499.9     100.531     880.975
     11.1000     101.378    0.916000    0.796000     48.8104     955.998     50499.9     100.552     648.341
