#------------------------------------------------------------
~VERSION INFORMATION
VERS.               2.0  :CWLS LOG ASCII STANDARD - VERSION 2.0
WRAP.                NO  :ONE LINE PER DEPTH STEP
#------------------------------------------------------------
~WELL INFORMATION
STRT.M        0.0500000  :FIRST INDEX VALUE
STOP.M          136.600  :LAST INDEX VALUE
STEP.M        0.0500000  :STEP
NULL.            -99999  :NULL VALUE
COMP.                    :COMP
WELL.        Scorpio E1  :WELL
FLD.                     :
LOC.             Mt Eba  :LOC
SRVC.                    :
CTRY.                    :
STAT.                SA  :STAT
CNTY.                    :
DATE.        15/03/2015  :DATE
UWI.           6038-187  :WUNT
#------------------------------------------------------------
~CURVE INFORMATION
DEPT.M                   :DEPTH
CALI.MM                  :CALI
DFAR.G/CM3               :DFAR
DNEAR.G/CM3              :DNEAR
GAMN.GAPI                :GAMN
NEUT.CPS                 :NEUT
PR.OHM/M                 :PR
SP.MV                    :SP
COND.MS/M                :COND
#------------------------------------------------------------
~PARAMETER INFORMATION
BS.              216 mm  :BS
JOBN.                    :JOBN
WPMT.                    :WPMT
AGL.                     :AGL
PURP. Cased hole stratigraphy  :PURP
X.              0560160  :X
CSGL.       0 m - 135 m  :CSGL
UNIT.                    :UNIT
Y.              6686430  :Y
TDL.            135.2 m  :TDL
PROD.                    :PROD
MUD.              Water  :MUD
CSGS.            100 mm  :CSGS
ENG.                     :ENG
STEP.              5 cm  :STEP
FluidLevel.        54 m  :FluidLevel
CSGT.               PVC  :CSGT
WIT.                     :WIT
EREF.                    :EREF
PROJ.                    :PROJ
ZONE.               53J  :ZONE
DREF.                GL  :DREF
TDD.              136 m  :TDD
#------------------------------------------------------------
~OTHER
#------------------------------------------------------------
~A   DEPT[M]        CALI        DFAR       DNEAR        GAMN        NEUT          PR          SP        COND
# ...
     88.8500     101.360     1.89900     1.75500     81.3584     159.001     2661.70     93.0300     526.030
     88.9000     101.336     1.83400     1.74300     85.9983     147.002     2657.77     93.1060     532.700
     88.9500     101.384     1.87600     1.80300     109.242     129.000     2657.59     93.0420     532.454
     89.0000     101.336     1.87400     1.76100     92.9745     149.997     2661.53     92.9930     527.762
     89.0500     101.420     1.88100     1.79200     97.6196     166.995     2664.09     92.9750     523.810
     89.1000     101.468     1.92100     1.79200     106.917     157.002     2659.65     92.9990     515.412
     89.1500     101.360     1.85700     1.79600     109.242     141.002     2656.91     93.0080     522.326
     89.2000     101.235     1.84200     1.81700     111.566     100.000     2648.38     92.9900     530.725
     89.2500     101.283     1.80300     1.83800     125.510     86.0021     2655.54     92.9690     538.134
     89.3000     101.019     1.71000     1.86000     90.6586     103.995     2643.96     93.0210     559.864
     89.3500     101.504     1.67100     1.75900     111.563     109.999     2654.18     92.9870     561.106
     89.4000     101.396     1.54900     1.52700     102.270     99.0017     2648.21     93.0540     593.705
     89.4500     101.330     1.54800     1.43200     118.539     108.000     2652.47     92.9870     566.293
     89.5000     101.402     1.54300     1.43200     146.427     107.000     2646.17     93.0180     562.836
     89.5500     101.486     1.55100     1.37600     102.282     117.997     2657.76     92.9570     547.279
     89.6000     101.468     1.52700     1.33200     95.2971     98.0031     2655.38     92.9720     555.177
     89.6500     101.498     1.54500     1.37000     97.6207     118.997     2660.50     92.9840     552.955
     89.7000     101.444     1.50000     1.39000     99.9450     115.000     2659.99     92.9690     557.648
     89.7500     101.432     1.52900     1.38300     86.0011     123.999     2661.53     92.9960     547.029
     89.8000     101.420     1.52100     1.37500     99.9407     130.998     2662.89     92.9500     534.434
     89.8500     101.444     1.52500     1.32700     123.184     105.004     2675.74     92.9750     515.167
     89.9000     101.474     1.47300     1.31000     130.160     108.000     2662.38     92.9600     504.051
     89.9500     101.336     1.51100     1.34400     109.242     123.000     2661.53     92.9410     501.085
     90.0000     101.396     1.50800     1.27000     99.9464     110.002     2656.57     92.9320     497.628
     90.0500     101.402     1.51800     1.32800     125.504     119.997     2662.04     92.9080     495.158
     90.1000     101.462     1.53100     1.34100     116.216     116.001     2661.01     92.8990     495.157
     90.1500     101.372     1.51000     1.32700     104.595     114.000     2661.53     92.8890     491.947
     90.2000     101.235     1.52000     1.32700     92.9720     96.0000     2651.45     92.9440     492.687
     90.2500     101.408     1.51300     1.39200     88.3237     128.995     2656.06     92.9780     502.319
     90.3000     101.396     1.51500     1.31000     81.3531     119.003     2663.06     92.8890     509.975
     90.3500     101.516     1.51800     1.33800     111.561     116.000     2651.28     92.8560     514.669
     90.4000     101.516     1.52600     1.32700     125.510     120.999     2656.91     92.8410     522.573
     90.4500     101.444     1.54400     1.35500     109.242     109.000     2664.43     92.8770     525.044
     90.5000     101.301     1.50800     1.36400     95.2981     124.998     2662.55     92.8990     526.279
     90.5500     101.396     1.49800     1.33200     104.590     123.001     2653.50     92.8960     530.724
     90.6000     101.414     1.50100     1.33900     113.890     116.001     2658.28     92.8890     530.725
     90.6500     101.426     1.50900     1.32600     109.243     105.002     2663.06     92.8860     533.935
     90.7000     101.474     1.49300     1.33200     116.215     130.000     2664.09     92.9110     537.394
     90.7500     101.480     1.53100     1.33700     109.243     132.000     2664.78     92.8620     539.617
     90.8000     101.492     1.48800     1.33100     120.860     110.007     2666.14     92.9110     538.629
     90.8500     101.516     1.50200     1.28400     132.483     100.002     2667.17     92.8830     551.471
     90.9000     101.516     1.51500     1.32700     141.781     99.0002     2669.06     92.8340     552.214
     90.9500     101.540     1.52400     1.33700     127.837     123.000     2662.38     92.8220     548.262
     91.0000     101.534     1.49500     1.34900     113.893     99.0037     2669.74     92.8470     543.076
     91.0500     101.522     1.50400     1.33200     139.450     112.996     2668.03     92.8340     541.593
     91.1000     101.492     1.52700     1.33400     120.867     103.002     2664.43     92.8310     542.581
     91.1500     101.510     1.49400     1.34700     109.244     106.000     2667.69     92.8100     542.581
     91.2000     101.612     1.51600     1.36200     116.215     115.000     2663.41     92.7800     553.696
     91.2500     101.636     1.49800     1.32900     123.187     113.000     2665.80     92.8340     557.894
     91.3000     101.648     1.51000     1.30700     144.101     112.000     2656.91     92.8620     563.574
     91.3500     101.462     1.46900     1.33300     111.571     119.999     2662.55     92.8590     564.070
     91.4000     101.450     1.46300     1.28100     125.510     103.003     2658.79     92.7980     558.390
     91.4500     101.570     1.47300     1.31200     97.6210     120.000     2662.55     92.7490     531.713
     91.5000     101.468     1.47600     1.32500     104.592     104.002     2668.37     92.7610     507.017
     91.5500     101.378     1.49100     1.27200     123.182     114.997     2661.19     92.7610     473.925
     91.6000     101.498     1.47900     1.34000     111.568     109.001     2653.84     92.7670     457.615
     91.6500     101.432     1.49100     1.35800     111.566     133.996     2668.37     92.7640     453.168
     91.7000     101.462     1.46500     1.36500     102.269     96.0000     2659.65     92.7890     440.817
     91.7500     101.336     1.46200     1.35700     83.6778     101.999     2664.43     92.7490     426.493
     91.8000     101.289     1.42500     1.32400     90.6459     93.0027     2666.83     92.7890     410.194
     91.8500     101.492     1.43100     1.29200     76.7041     117.996     2667.86     92.7670     379.072
     91.9000     101.324     1.40900     1.28000     81.3503     107.002     2657.43     92.7670     357.828
     91.9500     101.313     1.40800     1.25600     67.4050     110.000     2677.63     92.8070     330.161
     92.0000     101.313     1.42200     1.28800     85.9962     107.000     2658.62     92.8220     322.752
     92.0500     101.372     1.43300     1.25100     74.3815     142.989     2664.95     92.8100     319.788
     92.1000     101.307     1.45200     1.24600     67.4061     103.006     2660.16     92.8040     314.354
     92.1500     101.301     1.44300     1.26400     81.3489     124.997     2661.70     92.7310     311.389
     92.2000     101.384     1.46000     1.26900     67.4050     122.000     2666.83     92.7670     303.238
     92.2500     101.480     1.44800     1.22300     62.7567     124.000     2664.09     92.6510     304.967
     92.3000     101.414     1.45300     1.29600     76.6977     122.001     2662.04     92.6390     327.931
     92.3500     101.390     1.46900     1.29800     92.9695     128.999     2666.14     92.7190     346.954
     92.4000     101.235     1.48000     1.30900     109.240     107.003     2655.04     92.6330     354.119
     92.4500     101.193     1.42900     1.34300     79.0260     106.000     2661.18     92.4410     346.957
     92.5000     101.384     1.45400     1.33700     67.4068     103.000     2656.74     92.3000     327.694
