#------------------------------------------------------------
~VERSION INFORMATION
VERS.               2.0  :CWLS LOG ASCII STANDARD - VERSION 2.0
WRAP.                NO  :ONE LINE PER DEPTH STEP
#------------------------------------------------------------
~WELL INFORMATION
STRT.M        0.0500000  :FIRST INDEX VALUE
STOP.M          136.600  :LAST INDEX VALUE
STEP.M        0.0500000  :STEP
NULL.            -99999  :NULL VALUE
COMP.                    :COMP
WELL.        Scorpio E1  :WELL
FLD.                     :
LOC.             Mt Eba  :LOC
SRVC.                    :
CTRY.                    :
STAT.                SA  :STAT
CNTY.                    :
DATE.        15/03/2015  :DATE
UWI.           6038-187  :WUNT
#------------------------------------------------------------
~CURVE INFORMATION
DEPT.M                   :DEPTH
CALI.MM                  :CALI
DFAR.G/CM3               :DFAR
DNEAR.G/CM3              :DNEAR
GAMN.GAPI                :GAMN
NEUT.CPS                 :NEUT
PR.OHM/M                 :PR
SP.MV                    :SP
COND.MS/M                :COND
#------------------------------------------------------------
~PARAMETER INFORMATION
BS.              216 mm  :BS
JOBN.                    :JOBN
WPMT.                    :WPMT
AGL.                     :AGL
PURP. Cased hole stratigraphy  :PURP
X.              0560160  :X
CSGL.       0 m - 135 m  :CSGL
UNIT.                    :UNIT
Y.              6686430  :Y
TDL.            135.2 m  :TDL
PROD.                    :PROD
MUD.              Water  :MUD
CSGS.            100 mm  :CSGS
ENG.                     :ENG
STEP.              5 cm  :STEP
FluidLevel.        54 m  :FluidLevel
CSGT.               PVC  :CSGT
WIT.                     :WIT
EREF.                    :EREF
PROJ.                    :PROJ
ZONE.               53J  :ZONE
DREF.                GL  :DREF
TDD.              136 m  :TDD
#------------------------------------------------------------
~OTHER
#------------------------------------------------------------
~A   DEPT[M]        CALI        DFAR       DNEAR        GAMN        NEUT          PR          SP        COND
# ...
     51.8500     101.235     1.42900     1.35200     95.2939     600.997     32505.7     96.4541     254.579
     51.9000     101.085     1.49400     1.43300     83.6768     575.004     25058.9     95.8951     249.146
     51.9500     101.283     1.49400     1.46900     81.3515     610.992     21400.7     95.4041     255.566
     52.0000     101.181     1.51200     1.49100     104.589     604.001     17597.0     94.6351     256.061
     52.0500     101.211     1.53100     1.51000     74.3803     576.002     15648.2     94.2320     258.531
     52.1000     101.109     1.52000     1.57500     97.6175     587.998     12472.2     94.0670     259.025
     52.1500     101.097     1.54700     1.62200     88.3244     579.001     11981.8     94.1250     258.778
     52.2000     101.145     1.52700     1.55200     72.0567     570.002     11893.0     94.1990     254.580
     52.2500     101.223     1.47200     1.47700     83.6732     579.998     11844.5     94.2750     249.887
     52.3000     101.223     1.44000     1.37000     97.6199     577.000     11702.3     94.3300     249.145
     52.3500     101.277     1.44700     1.31700     81.3535     580.000     11626.6     94.3730     249.639
     52.4000     101.133     1.47700     1.34700     95.2939     528.008     11596.1     94.3660     250.133
     52.4500     101.007     1.52600     1.40700     72.0583     545.996     11584.3     94.4030     260.999
     52.5000     101.169     1.54600     1.47600     65.0811     565.997     11538.4     94.4270     267.175
     52.5500     101.031     1.50500     1.55600     65.0800     565.000     11468.0     94.4640     271.128
     52.6000     101.187     1.53200     1.63100     83.6722     534.005     11414.2     94.5920     261.990
     52.6500     101.217     1.53800     1.58400     102.266     577.993     11301.8     94.5070     256.556
     52.7000     101.229     1.51600     1.57100     92.9741     576.000     11243.8     94.5500     243.961
     52.7500     100.941     1.52200     1.41300     60.4370     603.996     11225.8     94.5680     243.464
     52.8000     101.037     1.49600     1.44500     113.887     564.003     11228.8     94.6470     243.464
     52.8500     101.103     1.49200     1.61000     90.6516     563.000     11208.7     94.6590     245.687
     52.9000     100.881     1.53100     1.63700     83.6761     560.000     11192.3     94.7390     239.266
     52.9500     101.223     1.56300     1.60800     76.7036     554.001     11104.1     94.6960     218.275
     53.0000     101.241     1.50400     1.52200     88.3212     580.996     11124.0     94.7270     203.205
     53.0500     101.049     1.55200     1.54300     48.8130     517.005     10906.1     94.7200     204.191
     53.1000     101.121     1.59000     1.56500     97.6136     513.001     10711.4     94.7200     210.612
     53.1500     101.067     1.57700     1.53400     88.3244     421.014     10505.7     94.7940     207.896
     53.2000     101.067     1.58400     1.55400     83.6761     419.000     10454.6     94.7630     218.515
     53.2500     102.319     1.60900     1.57900     97.6189     487.989     10002.1     94.8060     228.395
     53.3000     101.187     1.60000     1.62800     85.9999     505.999     9646.07     94.9040     247.909
     53.3500     101.684     1.55800     1.64900     76.7034     558.992     9746.90     94.9520     248.404
     53.4000     101.606     1.59100     1.74500     72.0537     560.000     9518.89     94.9770     244.700
     53.4500     101.660     1.62000     1.69100     88.3193     539.005     9481.72     95.0260     227.660
     53.5000     101.666     1.58700     1.67400     83.6757     561.996     9156.94     95.0930     240.992
     53.5500     101.426     1.57300     1.65900     109.240     510.004     9236.16     95.1720     252.108
     53.6000     101.564     1.48600     1.62700     95.2981     550.994     9188.96     95.2330     260.506
     53.6500     101.648     1.44500     1.57200     83.6768     609.991     9048.06     95.3430     276.313
     53.7000     101.744     1.43600     1.44200     72.0557     576.008     8976.96     95.3550     278.784
     53.7500     101.756     1.40300     1.44900     67.4057     620.993     8944.15     95.4130     273.599
     53.8000     101.810     1.35800     1.29700     79.0251     547.006     8828.67     95.5110     250.135
     53.8500     101.756     1.33700     1.27000     116.209     593.993     8720.44     95.5870     235.315
     53.9000     101.756     1.33400     1.18500     55.7922     613.997     8609.63     95.6730     219.754
     53.9500     101.660     1.32800     1.13000     72.0493     568.010     8530.80     95.7730     218.023
     54.0000     101.678     1.35100     1.19400     92.9688     625.991     8353.91     95.9320     227.901
     54.0500     101.648     1.39600     1.28700     81.3519     612.001     8177.53     95.9630     240.993
     54.1000     101.684     1.42500     1.35500     92.9702     616.999     8015.39     96.0780     245.686
     54.1500     101.666     1.49500     1.52400     95.2956     595.003     7908.81     96.2280     240.254
     54.2000     101.642     1.49400     1.51100     90.6491     589.001     8003.25     96.3650     242.229
     54.2500     101.624     1.49700     1.54500     113.887     604.998     7681.44     96.4970     240.747
     54.3000     101.642     1.51200     1.62000     69.7324     611.000     7629.20     96.6090     243.217
     54.3500     101.690     1.52100     1.52100     79.0246     632.997     7697.03     96.7100     243.217
     54.4000     101.684     1.51200     1.57000     90.6462     673.994     8020.64     96.7250     248.897
     54.4500     101.720     1.51800     1.55800     74.3817     665.002     8308.66     96.6400     247.910
     54.5000     101.654     1.50800     1.53800     81.3499     676.998     8532.84     96.5150     247.169
     54.5500     101.600     1.50400     1.57200     92.9711     496.014     8265.90     96.0630     251.121
     54.6000     101.690     1.48300     1.51400     83.6764     307.029     5748.32     95.8190     260.506
     54.6500     101.720     1.44200     1.53500     62.7592     209.015     3101.59     95.7090     260.507
     54.7000     101.696     1.41400     1.53500     79.0223     157.012     3081.79     95.6880     284.461
     54.7500     101.720     1.43600     1.50900     72.0541     124.005     3050.03     95.6850     284.466
     54.8000     101.696     1.49800     1.46600     76.7016     122.000     3051.15     95.6480     259.027
     54.8500     101.804     1.55900     1.42900     72.0537     142.997     3025.24     95.6050     246.924
     54.9000     101.756     1.64700     1.39200     69.7294     137.001     3040.62     95.5690     246.922
     54.9500     101.618     1.63000     1.49000     58.1097     143.998     3035.17     95.5630     259.022
     55.0000     101.732     1.69500     1.65700     69.7272     124.003     3032.92     95.4800     265.199
     55.0500     101.738     1.77600     1.73700     72.0528     147.998     3029.17     95.4860     273.103
     55.1000     101.744     1.82500     1.67800     97.6171     136.002     3023.37     95.4900     280.266
     55.1500     101.756     1.78400     1.64600     90.6491     135.000     3009.55     95.4410     278.785
     55.2000     101.774     1.77000     1.64400     69.7338     129.001     3005.07     95.4530     289.651
     55.2500     101.756     1.77200     1.74400     72.0527     130.000     3001.72     95.4280     291.382
     55.3000     101.762     1.82500     1.74900     65.0805     137.999     2999.49     95.4410     291.382
     55.3500     101.906     1.79200     1.71700     60.4327     116.003     2974.27     95.4350     278.293
     55.4000     101.900     1.79200     1.71100     81.3478     123.999     2984.26     95.4160     271.623
     55.4500     101.888     1.74200     1.62800     62.7603     132.998     2976.12     95.3770     262.238
     55.5000     101.828     1.71300     1.60100     55.7841     124.001     2967.62     95.3980     258.532
