#------------------------------------------------------------
~VERSION INFORMATION
VERS.               2.0  :CWLS LOG ASCII STANDARD - VERSION 2.0
WRAP.                NO  :ONE LINE PER DEPTH STEP
#------------------------------------------------------------
~WELL INFORMATION
STRT.M        0.0500000  :FIRST INDEX VALUE
STOP.M          136.600  :LAST INDEX VALUE
STEP.M        0.0500000  :STEP
NULL.            -99999  :NULL VALUE
COMP.                    :COMP
WELL.        Scorpio E1  :WELL
FLD.                     :
LOC.             Mt Eba  :LOC
SRVC.                    :
CTRY.                    :
STAT.                SA  :STAT
CNTY.                    :
DATE.        15/03/2015  :DATE
UWI.           6038-187  :WUNT
#------------------------------------------------------------
~CURVE INFORMATION
DEPT.M                   :DEPTH
CALI.MM                  :CALI
DFAR.G/CM3               :DFAR
DNEAR.G/CM3              :DNEAR
GAMN.GAPI                :GAMN
NEUT.CPS                 :NEUT
PR.OHM/M                 :PR
SP.MV                    :SP
COND.MS/M                :COND
#------------------------------------------------------------
~PARAMETER INFORMATION
BS.              216 mm  :BS
JOBN.                    :JOBN
WPMT.                    :WPMT
AGL.                     :AGL
PURP. Cased hole stratigraphy  :PURP
X.              0560160  :X
CSGL.       0 m - 135 m  :CSGL
UNIT.                    :UNIT
Y.              6686430  :Y
TDL.            135.2 m  :TDL
PROD.                    :PROD
MUD.              Water  :MUD
CSGS.            100 mm  :CSGS
ENG.                     :ENG
STEP.              5 cm  :STEP
FluidLevel.        54 m  :FluidLevel
CSGT.               PVC  :CSGT
WIT.                     :WIT
EREF.                    :EREF
PROJ.                    :PROJ
ZONE.               53J  :ZONE
DREF.                GL  :DREF
TDD.              136 m  :TDD
#------------------------------------------------------------
~OTHER
#------------------------------------------------------------
~A   DEPT[M]        CALI        DFAR       DNEAR        GAMN        NEUT          PR          SP        COND
# ...
     18.5500     101.289     1.44100     1.48000     104.591     1318.99     50499.9     100.555     101.439
     18.6000     101.414     1.46200     1.50100     106.918     1291.01     50499.9     100.558     95.5121
     18.6500     101.253     1.48000     1.46900     116.214     1318.00     50499.9     100.549     97.7337
     18.7000     101.396     1.45700     1.47400     95.3008     1199.03     50499.9     100.549     100.697
     18.7500     101.187     1.43200     1.53800     97.6207     1205.00     50499.9     100.555     100.204
     18.8000     101.253     1.42600     1.53900     74.3798     1138.01     50499.9     100.549     99.9570
     18.8500     101.313     1.43400     1.50800     123.179     1143.00     50499.9     100.531     98.9692
     18.9000     101.313     1.41200     1.51500     139.456     1077.01     50499.9     100.540     97.4872
     18.9500     101.372     1.42000     1.49900     92.9826     1070.00     50499.9     100.519     107.365
     19.0000     101.301     1.42700     1.50800     146.423     1047.00     50499.9     100.549     114.776
     19.0500     101.360     1.45700     1.53600     88.3274     1081.00     50499.9     100.513     134.288
     19.1000     101.408     1.43000     1.51300     102.266     1092.00     50499.9     100.513     137.994
     19.1500     101.444     1.45300     1.51900     92.9731     1162.99     50499.9     100.519     155.530
     19.2000     101.486     1.47000     1.51800     132.476     1214.99     50499.9     100.507     162.940
     19.2500     101.402     1.49400     1.51400     120.866     1280.99     50499.9     100.510     166.893
     19.3000     101.318     1.52000     1.52700     123.188     1373.99     50499.9     100.500     156.768
     19.3500     101.372     1.49000     1.51900     139.455     1344.01     50499.9     100.482     133.060
     19.4000     101.289     1.49300     1.52800     151.079     1346.00     50499.9     100.479     116.261
     19.4500     101.426     1.49100     1.51500     109.252     1308.01     50499.9     100.461     110.085
     19.5000     101.271     1.48500     1.57600     113.890     1207.02     50499.9     100.455     108.108
     19.5500     101.289     1.46400     1.51200     151.077     1127.01     50499.9     100.421     110.331
     19.6000     101.396     1.46000     1.46800     109.250     1210.98     50499.9     100.452     110.825
     19.6500     101.348     1.45000     1.49300     92.9739     1227.00     50499.9     100.449     110.825
     19.7000     101.354     1.44800     1.47700     125.505     1135.02     50499.9     100.482     111.566
     19.7500     101.307     1.47300     1.47300     118.540     1127.00     50499.9     100.446     117.987
     19.8000     101.360     1.46800     1.45200     95.2978     1058.01     50499.9     100.476     117.988
     19.8500     101.318     1.50000     1.50800     76.7056     1077.00     50499.9     100.409     134.287
     19.9000     101.336     1.48500     1.45400     85.9979     1106.00     50499.9     100.421     143.922
     19.9500     101.456     1.49500     1.47400     111.560     1072.01     50499.9     100.424     148.368
     20.0000     101.504     1.52400     1.48600     106.919     1133.99     50499.9     100.415     156.272
     20.0500     101.348     1.51600     1.50900     104.593     1185.00     50499.9     100.375     154.297
     20.1000     101.402     1.52500     1.54200     111.565     1189.00     50499.9     100.333     157.754
     20.1500     101.408     1.52900     1.57300     97.6226     1324.98     50499.9     100.290     148.123
     20.2000     101.408     1.52200     1.54800     123.182     1188.03     50499.9     100.266     143.924
     20.2500     101.420     1.54200     1.57600     95.3003     1392.97     50499.9     100.302     129.599
     20.3000     101.432     1.52300     1.57400     165.020     1398.00     50499.9     100.314     134.290
     20.3500     101.456     1.52000     1.52500     123.196     1386.00     50499.9     100.317     114.781
     20.4000     101.420     1.51900     1.56700     106.920     1384.00     35847.7     100.195     104.157
     20.4500     101.408     1.47700     1.56800     148.745     1357.01     32611.8     99.8721     98.4763
     20.5000     101.336     1.48000     1.61200     116.220     1285.01     35636.2     99.3501     89.0904
     20.5500     101.408     1.49600     1.51200     76.7050     1263.00     34851.4     99.2370     80.6916
     20.6000     101.372     1.48800     1.57300     113.884     1227.01     36080.9     99.6639     81.9258
     20.6500     101.372     1.44600     1.54600     116.215     1277.99     32947.7     100.311     74.0229
     20.7000     101.289     1.46800     1.58000     97.6253     1324.99     33244.4     100.574     71.0587
     20.7500     101.283     1.48900     1.53300     92.9727     1304.00     38027.1     100.571     73.2807
     20.8000     101.330     1.48100     1.54200     118.537     1299.00     39933.9     100.580     73.2810
     20.8500     101.336     1.47600     1.55100     106.920     1290.00     39810.0     100.565     79.2079
     20.9000     101.420     1.44100     1.50400     102.270     1317.00     40115.7     100.610     69.3301
     20.9500     101.372     1.47100     1.50000     83.6793     1341.99     39956.7     100.549     69.3290
     21.0000     101.396     1.44600     1.54000     116.210     1345.00     40087.3     100.580     60.6853
     21.0500     101.193     1.44700     1.50900     118.539     1374.00     40230.0     100.574     64.8827
     21.1000     101.444     1.45900     1.54000     102.272     1337.01     40945.7     100.562     62.9074
     21.1500     101.241     1.45600     1.48000     109.241     1349.00     41435.6     100.534     62.9070
     21.2000     101.277     1.41500     1.47200     120.861     1328.00     42065.8     100.507     57.4742
     21.2500     101.324     1.41000     1.49200     116.216     1385.99     42340.3     100.510     56.4852
     21.3000     101.348     1.41600     1.45000     86.0013     1344.00     41923.7     100.482     55.0031
     21.3500     101.205     1.42600     1.48200     88.3226     1395.99     42700.5     100.507     56.7317
     21.4000     101.360     1.41500     1.49300     83.6755     1379.00     42732.5     100.522     57.9669
     21.4500     101.324     1.43300     1.44900     104.588     1542.96     43222.1     100.549     56.7323
     21.5000     101.366     1.42900     1.47300     106.918     1566.00     43372.3     100.543     54.5093
     21.5500     101.342     1.45100     1.49400     120.863     1523.00     43079.5     100.571     52.5332
     21.6000     101.211     1.45600     1.54900     127.836     1552.99     43163.7     100.540     51.7921
     21.6500     101.384     1.45400     1.52500     90.6523     1502.01     43405.1     100.519     50.5571
     21.7000     101.301     1.43100     1.51500     109.238     1540.99     43655.6     100.507     50.3101
     21.7500     101.283     1.46400     1.51300     99.9464     1456.01     42950.5     100.519     50.5570
     21.8000     101.318     1.45200     1.52600     83.6762     1603.99     42240.2     100.586     50.0630
     21.8500     101.348     1.45600     1.51200     104.589     1557.01     42809.1     100.568     48.0874
     21.9000     101.277     1.45400     1.51800     104.593     1638.99     42943.9     100.583     49.5688
     21.9500     101.432     1.43700     1.46500     72.0605     1607.01     42892.5     100.589     49.0751
     22.0000     101.342     1.41500     1.49800     97.6171     1665.99     43372.3     100.583     49.0750
     22.0500     101.408     1.43600     1.53700     113.890     1567.01     43969.0     100.604     49.5690
     22.1000     101.390     1.44100     1.53800     118.538     1589.00     43888.6     100.586     49.5690
     22.1500     101.438     1.41900     1.54500     106.919     1573.00     44642.5     100.641     49.5690
     22.2000     101.241     1.40600     1.51700     104.594     1552.00     46450.2     100.668     50.5568
