~Version Information
VERS.    1.20:   CWLS log ASCII Standard - version 1.20
WRAP.      NO:   one line per depth step
~Well Information
#MNEM.UNIT     Data Type     Information
#_________     _________     ________________________
 STRT.M           30.000:
 STOP.M           53.700:
 STEP.M            0.050:
 NULL.              -0.0:
 COMP.           COMPANY: 
 WELL.              WELL: GT14571
 FLD.              FIELD: 
 LOC.           LOCATION:  
 CNTY.            COUNTY:  
 STAT.             STATE: 
 CTRY.           COUNTRY: 
 SRVC.   SERVICE COMPANY: 
 DATE.          LOG DATE: 07/05/2014
 UWI.     UNIQUE WELL ID: unknown
~Curve Information
#MNEM.UNIT       Curve  Information
#_________       _____  ___________________
 DEPT.M        :    1   DEPTH
 DNCP.cps      :    2   DNCPS
 DFCP.cps      :    3   DFCPS
 GCPS.cps      :    4   GCPS
 DENF.cps      :    5   DENS_F
 DENN.cps      :    6   DENS_N
 GAMM.cps      :    7   GAMMA
~Parameter Information
~Other Information
~A Depth      DNCP      DFCP      GCPS      DENF      DENN      GAMM
# ...
   41.65 12082.000  2400.000    25.000  2431.000 11981.000    54.100
   41.70 12493.000  2469.000    38.000  2526.000 11958.000    82.232
   41.75 12828.000  2423.000    26.000  2621.000 12053.000    56.264
   41.80 13329.000  2311.000    22.000  2652.000 12022.000    47.608
   41.85 13574.000  2431.000    22.000  2766.000 12082.000    47.608
   41.90 13945.000  2526.000    30.000  2771.000 12493.000    64.920
   41.95 14206.000  2621.000    30.000  2815.000 12828.000    64.920
   42.00 14142.000  2652.000    29.000  2842.000 13329.000    62.756
   42.05 14537.000  2766.000    28.000  2880.000 13574.000    60.592
   42.10 14116.000  2771.000    22.000  2764.000 13945.000    47.608
   42.15 13230.000  2815.000    20.000  2699.000 14206.000    43.280
   42.20 11236.000  2842.000    27.000  2334.000 14142.000    58.428
   42.25  9474.000  2880.000    31.000  2039.000 14537.000    67.084
   42.30  7929.000  2764.000    17.000  1687.000 14116.000    36.788
   42.35  6755.000  2699.000    21.000  1537.000 13230.000    45.444
   42.40  6619.000  2334.000    34.000  1447.000 11236.000    73.576
   42.45  5844.000  2039.000    35.000  1425.000  9474.000    75.740
   42.50  6252.000  1687.000    44.000  1270.000  7929.000    95.216
   42.55  6879.000  1537.000    74.000  1188.000  6755.000   160.136
   42.60  7913.000  1447.000    83.000  1207.000  6619.000   179.612
   42.65  9498.000  1425.000   119.000  1245.000  5844.000   257.516
   42.70 11297.000  1270.000   111.000  1402.000  6252.000   240.204
   42.75 12202.000  1188.000   134.000  1555.000  6879.000   289.976
   42.80 12523.000  1207.000   209.000  1844.000  7913.000   452.276
   42.85 12143.000  1245.000   397.000  1876.000  9498.000   859.108
   42.90 11429.000  1402.000   738.000  2069.000 11297.000  1597.032
   42.95 10942.000  1555.000  1061.000  2109.000 12202.000  2296.004
   43.00 10374.000  1844.000  1673.000  2060.000 12523.000  3620.372
   43.05  9970.000  1876.000  2375.000  1937.000 12143.000  5139.500
   43.10  9655.000  2069.000  3216.000  1882.000 11429.000  6959.424
   43.15  9448.000  2109.000  3621.000  1765.000 10942.000  7835.844
   43.20  9157.000  2060.000  4827.000  1797.000 10374.000 10445.628
   43.25  9139.000  1937.000  5928.000  1979.000  9970.000 12828.192
   43.30  9215.000  1882.000  6939.000  2117.000  9655.000 15015.996
   43.35  9413.000  1765.000  7269.000  2636.000  9448.000 15730.116
   43.40  9497.000  1797.000  7493.000  3174.000  9157.000 16214.852
   43.45  9930.000  1979.000  7558.000  3826.000  9139.000 16355.512
   43.50 10177.000  2117.000  7667.000  4754.000  9215.000 16591.388
   43.55  9955.000  2636.000  8404.000  5681.000  9413.000 18186.256
   43.60 10284.000  3174.000  8679.000  6830.000  9497.000 18781.356
   43.65 10229.000  3826.000  8770.000  7674.000  9930.000 18978.280
   43.70 10115.000  4754.000  8754.000  8257.000 10177.000 18943.656
   43.75 10342.000  5681.000  8681.000  8477.000  9955.000 18785.684
   43.80 10342.000  6830.000  8646.000  8477.000 10284.000 18709.944
   43.85 10578.000  7674.000  8476.000  8601.000 10229.000 18342.064
   43.90 10866.000  8257.000  8535.000  8838.000 10115.000 18469.740
   43.95 10995.000  8477.000  8127.000  9479.000 10342.000 17586.828
   44.00 11101.000  8477.000  7134.000  9661.000 10342.000 15437.976
   44.05 11599.000  8601.000  4792.000  9763.000 10578.000 10369.888
   44.10 11870.000  8838.000  2383.000  9797.000 10866.000  5156.812
   44.15 12373.000  9479.000  1128.000  9719.000 10995.000  2440.992
   44.20 12431.000  9661.000   580.000  9779.000 11101.000  1255.120
   44.25 11472.000  9763.000   378.000  9677.000 11599.000   817.992
   44.30 10406.000  9797.000   260.000  9235.000 11870.000   562.640
   44.35  9986.000  9719.000   201.000  8711.000 12373.000   434.964
   44.40  9897.000  9779.000   110.000  7930.000 12431.000   238.040
   44.45  9437.000  9677.000    83.000  5436.000 11472.000   179.612
   44.50  9054.000  9235.000    45.000  3250.000 10406.000    97.380
   44.55  9010.000  8711.000    34.000  2474.000  9986.000    73.576
   44.60  8913.000  7930.000    23.000  1938.000  9897.000    49.772
   44.65  8965.000  5436.000    15.000  1779.000  9437.000    32.460
   44.70  8809.000  3250.000    17.000  1705.000  9054.000    36.788
   44.75  8875.000  2474.000    10.000  1528.000  9010.000    21.640
   44.80  9108.000  1938.000    13.000  1467.000  8913.000    28.132
   44.85  8889.000  1779.000    14.000  1394.000  8965.000    30.296
   44.90  9080.000  1705.000     9.000  1340.000  8809.000    19.476
   44.95  8951.000  1528.000    11.000  1333.000  8875.000    23.804
   45.00  8907.000  1467.000    13.000  1392.000  9108.000    28.132
   45.05  9031.000  1394.000    10.000  1461.000  8889.000    21.640
   45.10  8940.000  1340.000    11.000  1412.000  9080.000    23.804
   45.15  9222.000  1333.000     9.000  1340.000  8951.000    19.476
   45.20  9400.000  1392.000    11.000  1409.000  8907.000    23.804
   45.25  9180.000  1461.000     9.000  1424.000  9031.000    19.476
   45.30  9640.000  1412.000    14.000  1476.000  8940.000    30.296
   45.35  9540.000  1340.000    11.000  1502.000  9222.000    23.804
   45.40  9788.000  1409.000    10.000  1546.000  9400.000    21.640
   45.45  9817.000  1424.000    13.000  1567.000  9180.000    28.132
   45.50  9794.000  1476.000     6.000  1594.000  9640.000    12.984
   45.55  9811.000  1502.000    10.000  1517.000  9540.000    21.640
   45.60  9898.000  1546.000    14.000  1622.000  9788.000    30.296
   45.65  9862.000  1567.000    10.000  1509.000  9817.000    21.640
   45.70  9772.000  1594.000    10.000  1552.000  9794.000    21.640
   45.75  9753.000  1517.000    16.000  1644.000  9811.000    34.624
   45.80  9841.000  1622.000    11.000  1681.000  9898.000    23.804
   45.85  9939.000  1509.000    24.000  1706.000  9862.000    51.936
   45.90 10113.000  1552.000    18.000  1595.000  9772.000    38.952
   45.95 10230.000  1644.000    16.000  1721.000  9753.000    34.624
   46.00 10607.000  1681.000    19.000  1679.000  9841.000    41.116
   46.05 10977.000  1706.000    11.000  1763.000  9939.000    23.804
   46.10 11221.000  1595.000    17.000  1913.000 10113.000    36.788
   46.15 11940.000  1721.000    16.000  1937.000 10230.000    34.624
   46.20 12296.000  1679.000     9.000  2061.000 10607.000    19.476
   46.25 11972.000  1763.000    16.000  2043.000 10977.000    34.624
   46.30 11064.000  1913.000     8.000  1913.000 11221.000    17.312
   46.35  9884.000  1937.000    10.000  1736.000 11940.000    21.640
   46.40  9558.000  2061.000     8.000  1665.000 12296.000    17.312
   46.45  8796.000  2043.000    17.000  1429.000 11972.000    36.788
   46.50  8021.000  1913.000    10.000  1447.000 11064.000    21.640
   46.55  7103.000  1736.000    10.000  1366.000  9884.000    21.640
   46.60  6060.000  1665.000     8.000  1237.000  9558.000    17.312
   46.65  5354.000  1429.000     8.000  1167.000  8796.000    17.312
   46.70  5323.000  1447.000    12.000  1071.000  8021.000    25.968
   46.75  5685.000  1366.000     9.000  1069.000  7103.000    19.476
   46.80  6413.000  1237.000     8.000  1019.000  6060.000    17.312
   46.85  6954.000  1167.000    12.000  1047.000  5354.000    25.968
   46.90  7551.000  1071.000    15.000  1082.000  5323.000    32.460
   46.95  8104.000  1069.000    15.000  1188.000  5685.000    32.460
   47.00  8563.000  1019.000    12.000  1242.000  6413.000    25.968
   47.05  9812.000  1047.000     8.000  1245.000  6954.000    17.312
   47.10 11420.000  1082.000    13.000  1455.000  7551.000    28.132
   47.15 12546.000  1188.000    11.000  1575.000  8104.000    23.804
   47.20 12511.000  1242.000    21.000  1758.000  8563.000    45.444
   47.25 12557.000  1245.000    15.000  2017.000  9812.000    32.460
   47.30 12542.000  1455.000    21.000  2269.000 11420.000    45.444
   47.35 12487.000  1575.000    17.000  2399.000 12546.000    36.788
   47.40 12668.000  1758.000    12.000  2482.000 12511.000    25.968
