~Version Information
VERS.    1.20:   CWLS log ASCII Standard - version 1.20
WRAP.      NO:   one line per depth step
~Well Information
#MNEM.UNIT     Data Type     Information
#_________     _________     ________________________
 STRT.M           20.000:
 STOP.M           54.350:
 STEP.M            0.050:
 NULL.              -0.0:
 COMP.           COMPANY: 
 WELL.              WELL: GT14574
 FLD.              FIELD: 
 LOC.           LOCATION:  
 CNTY.            COUNTY:  
 STAT.             STATE: 
 CTRY.           COUNTRY: 
 SRVC.   SERVICE COMPANY: 
 DATE.          LOG DATE: 07/05/2014
 UWI.     UNIQUE WELL ID: unknown
~Curve Information
#MNEM.UNIT       Curve  Information
#_________       _____  ___________________
 DEPT.M        :    1   DEPTH
 GCPS.cps      :    2   GCPS
 NCPS.cps      :    3   NCPS
 CCLC.cps      :    4   CCLCPS
 CCL .cps      :    5   CCL
 GAPI.Gapi     :    6   GAPI
 NEUT.cps      :    7   NEUTRON
~Parameter Information
~Other Information
~A Depth      GCPS      NCPS      CCLC      CCL       GAPI      NEUT
# ...
   37.45    24.000    79.000  4867.000  4867.000    56.264    85.000
   37.50    21.000    75.000  4867.000  4867.000    58.428    70.000
   37.55    28.000    99.000  4867.000  4867.000    38.952    77.000
   37.60    28.000    99.000  4867.000  4867.000    47.608    96.000
   37.65    26.000    77.000  4867.000  4867.000    67.084    95.000
   37.70    21.000    89.000  4867.000  4867.000    67.084    82.000
   37.75    24.000    97.000  4867.000  4867.000    60.592    77.000
   37.80    24.000    97.000  4867.000  4867.000    60.592    79.000
   37.85    29.000    96.000  4867.000  4867.000    60.592    75.000
   37.90    22.000    90.000  4867.000  4867.000    60.592    99.000
   37.95    28.000    97.000  4867.000  4867.000    49.772    99.000
   38.00    28.000    97.000  4867.000  4867.000    43.280    77.000
   38.05    29.000    98.000  4867.000  4867.000    45.444    89.000
   38.10    38.000   100.000  4868.000  4868.000    47.608    97.000
   38.15    25.000    86.000  4867.000  4867.000    36.788    97.000
   38.20    25.000    75.000  4867.000  4867.000    41.116    96.000
   38.25    22.000    62.000  4867.000  4867.000    67.084    90.000
   38.30    21.000    90.000  4868.000  4868.000    64.920    97.000
   38.35    29.000    82.000  4867.000  4867.000    51.936    97.000
   38.40    32.000    82.000  4867.000  4867.000    43.280    98.000
   38.45    39.000    98.000  4867.000  4867.000    51.936   100.000
   38.50    27.000    90.000  4867.000  4867.000    49.772    86.000
   38.55    23.000    86.000  4868.000  4868.000    38.952    75.000
   38.60    32.000    94.000  4868.000  4868.000    36.788    62.000
   38.65    30.000    85.000  4867.000  4867.000    47.608    90.000
   38.70    30.000    91.000  4867.000  4867.000    38.952    82.000
   38.75    29.000    92.000  4867.000  4867.000    47.608    82.000
   38.80    19.000    82.000  4867.000  4867.000    49.772    98.000
   38.85    26.000    75.000  4867.000  4867.000    77.904    90.000
   38.90    26.000    74.000  4867.000  4867.000    58.428    86.000
   38.95    27.000    98.000  4868.000  4868.000    62.756    94.000
   39.00    18.000    74.000  4867.000  4867.000    67.084    85.000
   39.05    22.000    80.000  4867.000  4867.000    47.608    91.000
   39.10    31.000    86.000  4867.000  4867.000    51.936    92.000
   39.15    31.000    86.000  4867.000  4867.000    71.412    82.000
   39.20    28.000    76.000  4867.000  4867.000    60.592    75.000
   39.25    28.000    76.000  4867.000  4867.000    56.264    74.000
   39.30    28.000    83.000  4867.000  4867.000    56.264    98.000
   39.35    28.000    83.000  4867.000  4867.000    56.264    74.000
   39.40    23.000    72.000  4867.000  4867.000    56.264    80.000
   39.45    20.000    82.000  4867.000  4867.000    56.264    86.000
   39.50    21.000    79.000  4868.000  4868.000    56.264    86.000
   39.55    22.000    77.000  4867.000  4867.000    43.280    76.000
   39.60    17.000    75.000  4867.000  4867.000    54.100    76.000
   39.65    19.000    68.000  4867.000  4867.000    47.608    83.000
   39.70    31.000    84.000  4868.000  4868.000    51.936    83.000
   39.75    30.000    90.000  4867.000  4867.000    69.248    72.000
   39.80    24.000    85.000  4867.000  4867.000    56.264    82.000
   39.85    20.000    97.000  4868.000  4868.000    77.904    79.000
   39.90    24.000    79.000  4868.000  4868.000    69.248    77.000
   39.95    23.000    73.000  4867.000  4867.000    75.740    75.000
   40.00    18.000    85.000  4868.000  4868.000    51.936    68.000
   40.05    17.000    88.000  4867.000  4867.000    51.936    84.000
   40.10    22.000    85.000  4867.000  4867.000    58.428    90.000
   40.15    18.000    79.000  4867.000  4867.000    56.264    85.000
   40.20    22.000    85.000  4867.000  4867.000    49.772    97.000
   40.25    23.000    95.000  4867.000  4867.000    54.100    79.000
   40.30    36.000    72.000  4867.000  4867.000    64.920    73.000
   40.35    27.000    81.000  4868.000  4868.000    51.936    85.000
   40.40    29.000    91.000  4866.000  4866.000    49.772    88.000
   40.45    31.000    98.000  4867.000  4867.000    56.264    85.000
   40.50    22.000   101.000  4867.000  4867.000    64.920    79.000
   40.55    24.000    97.000  4867.000  4867.000    43.280    85.000
   40.60    33.000    80.000  4867.000  4867.000    51.936    95.000
   40.65    28.000    83.000  4867.000  4867.000    45.444    72.000
   40.70    26.000    69.000  4867.000  4867.000    49.772    81.000
   40.75    26.000    69.000  4867.000  4867.000    36.788    91.000
   40.80    26.000    89.000  4868.000  4868.000    62.756    98.000
   40.85    26.000    89.000  4868.000  4868.000    71.412   101.000
   40.90    26.000    90.000  4867.000  4867.000    36.788    97.000
   40.95    26.000    90.000  4867.000  4867.000    51.936    80.000
   41.00    20.000    78.000  4866.000  4866.000    54.100    83.000
   41.05    25.000    69.000  4868.000  4868.000    54.100    69.000
   41.10    22.000    69.000  4867.000  4867.000    41.116    69.000
   41.15    24.000    68.000  4868.000  4868.000    38.952    89.000
   41.20    32.000    71.000  4868.000  4868.000    77.904    89.000
   41.25    26.000    79.000  4867.000  4867.000    77.904    90.000
   41.30    36.000    80.000  4868.000  4868.000    38.952    90.000
   41.35    32.000    75.000  4870.000  4870.000    38.952    78.000
   41.40    35.000    75.000  4868.000  4868.000    64.920    69.000
   41.45    24.000   109.000  4867.000  4867.000    54.100    69.000
   41.50    24.000   100.000  4867.000  4867.000    67.084    68.000
   41.55    27.000    94.000  4866.000  4866.000    67.084    71.000
   41.60    26.000    83.000  4866.000  4866.000    49.772    79.000
   41.65    23.000    79.000  4866.000  4866.000    80.068    80.000
   41.70    25.000    92.000  4867.000  4867.000    71.412    75.000
   41.75    30.000    96.000  4870.000  4870.000    47.608    75.000
   41.80    24.000    98.000  4873.000  4873.000    49.772   109.000
   41.85    23.000    77.000  4879.000  4879.000    47.608   100.000
   41.90    26.000    73.000  4882.000  4882.000    62.756    94.000
   41.95    30.000    90.000  4888.000  4888.000    56.264    83.000
   42.00    20.000    92.000  4894.000  4894.000    60.592    79.000
   42.05    24.000    92.000  4910.000  4910.000    62.756    92.000
   42.10    21.000    88.000  4908.000  4908.000    67.084    96.000
   42.15    23.000    76.000  4816.000  4816.000    67.084    98.000
   42.20    17.000    66.000  4732.000  4732.000    54.100    77.000
   42.25    29.000    49.000  4978.000  4978.000    67.084    73.000
   42.30    33.000    46.000  4462.000  4462.000    64.920    90.000
   42.35    17.000    55.000  4224.000  4224.000    54.100    92.000
   42.40    24.000    52.000  6619.000  6619.000    71.412    92.000
   42.45    25.000    61.000  3677.000  3677.000    71.412    88.000
   42.50    25.000    58.000  4291.000  4291.000    82.232    76.000
   42.55    19.000    51.000  6789.000  6789.000   179.612    66.000
   42.60    18.000    62.000  6779.000  6779.000   196.924    49.000
   42.65    36.000    52.000  2396.000  2396.000   225.056    46.000
   42.70    36.000    52.000  2396.000  2396.000   229.384    55.000
   42.75    18.000    58.000  4823.000  4823.000   341.912    52.000
   42.80    18.000    58.000  4823.000  4823.000   341.912    61.000
   42.85    30.000    54.000  4827.000  4827.000  1196.692    58.000
   42.90    25.000    48.000  4869.000  4869.000  1196.692    51.000
   42.95    31.000    57.000  4871.000  4871.000  2800.216    62.000
   43.00    31.000    57.000  4871.000  4871.000  2800.216    52.000
   43.05    23.000    46.000  4871.000  4871.000  5529.020    52.000
   43.10    37.000    45.000  4869.000  4869.000  5529.020    58.000
   43.15    33.000    47.000  4868.000  4868.000  8530.488    58.000
   43.20    22.000    62.000  4869.000  4869.000 11856.556    54.000
