~Version Information
VERS.    1.20:   CWLS log ASCII Standard - version 1.20
WRAP.      NO:   one line per depth step
~Well Information
#MNEM.UNIT     Data Type     Information
#_________     _________     ________________________
 STRT.M           20.000:
 STOP.M           54.350:
 STEP.M            0.050:
 NULL.              -0.0:
 COMP.           COMPANY: 
 WELL.              WELL: GT14574
 FLD.              FIELD: 
 LOC.           LOCATION:  
 CNTY.            COUNTY:  
 STAT.             STATE: 
 CTRY.           COUNTRY: 
 SRVC.   SERVICE COMPANY: 
 DATE.          LOG DATE: 07/05/2014
 UWI.     UNIQUE WELL ID: unknown
~Curve Information
#MNEM.UNIT       Curve  Information
#_________       _____  ___________________
 DEPT.M        :    1   DEPTH
 GCPS.cps      :    2   GCPS
 NCPS.cps      :    3   NCPS
 CCLC.cps      :    4   CCLCPS
 CCL .cps      :    5   CCL
 GAPI.Gapi     :    6   GAPI
 NEUT.cps      :    7   NEUTRON
~Parameter Information
~Other Information
~A Depth      GCPS      NCPS      CCLC      CCL       GAPI      NEUT
# ...
   31.65    24.000    91.000  4868.000  4868.000    58.428    93.000
   31.70    27.000    77.000  4868.000  4868.000    58.428    82.000
   31.75    28.000    76.000  4868.000  4868.000    41.116    74.000
   31.80    28.000    74.000  4868.000  4868.000    58.428    77.000
   31.85    33.000    58.000  4868.000  4868.000    58.428    83.000
   31.90    33.000    61.000  4868.000  4868.000    67.084    85.000
   31.95    36.000    73.000  4868.000  4868.000    60.592    92.000
   32.00    30.000    59.000  4868.000  4868.000    58.428    91.000
   32.05    25.000    61.000  4868.000  4868.000    73.576    77.000
   32.10    29.000    61.000  4868.000  4868.000    47.608    76.000
   32.15    21.000    63.000  4868.000  4868.000    43.280    74.000
   32.20    34.000    78.000  4868.000  4868.000    45.444    58.000
   32.25    24.000    70.000  4868.000  4868.000    45.444    61.000
   32.30    25.000    71.000  4868.000  4868.000    47.608    73.000
   32.35    31.000    75.000  4867.000  4867.000    43.280    59.000
   32.40    31.000    75.000  4867.000  4867.000    43.280    61.000
   32.45    32.000    69.000  4868.000  4868.000    69.248    61.000
   32.50    39.000    77.000  4867.000  4867.000    67.084    63.000
   32.55    37.000    69.000  4867.000  4867.000    58.428    78.000
   32.60    33.000    63.000  4868.000  4868.000    62.756    70.000
   32.65    36.000    74.000  4867.000  4867.000    58.428    71.000
   32.70    39.000    58.000  4867.000  4867.000    67.084    75.000
   32.75    28.000    68.000  4867.000  4867.000    45.444    75.000
   32.80    30.000    78.000  4868.000  4868.000    51.936    69.000
   32.85    30.000    67.000  4867.000  4867.000    56.264    77.000
   32.90    34.000    69.000  4867.000  4867.000    56.264    69.000
   32.95    28.000    69.000  4868.000  4868.000    54.100    63.000
   33.00    24.000    72.000  4867.000  4867.000    47.608    74.000
   33.05    24.000    72.000  4867.000  4867.000    41.116    58.000
   33.10    27.000    76.000  4868.000  4868.000    43.280    68.000
   33.15    27.000    75.000  4868.000  4868.000    38.952    78.000
   33.20    19.000    75.000  4867.000  4867.000    71.412    67.000
   33.25    27.000    58.000  4867.000  4867.000    64.920    69.000
   33.30    27.000    59.000  4868.000  4868.000    60.592    69.000
   33.35    31.000    77.000  4868.000  4868.000    62.756    72.000
   33.40    28.000    75.000  4867.000  4867.000    75.740    72.000
   33.45    27.000    72.000  4867.000  4867.000    54.100    76.000
   33.50    34.000    73.000  4867.000  4867.000    51.936    75.000
   33.55    22.000    76.000  4868.000  4868.000    47.608    75.000
   33.60    20.000    73.000  4867.000  4867.000    36.788    58.000
   33.65    21.000    75.000  4867.000  4867.000    43.280    59.000
   33.70    21.000    75.000  4867.000  4867.000    38.952    77.000
   33.75    22.000    62.000  4867.000  4867.000    45.444    75.000
   33.80    20.000    73.000  4867.000  4867.000    43.280    72.000
   33.85    20.000    64.000  4868.000  4868.000    34.624    73.000
   33.90    32.000    71.000  4866.000  4866.000    45.444    76.000
   33.95    31.000    74.000  4867.000  4867.000    73.576    73.000
   34.00    27.000    68.000  4867.000  4867.000    62.756    75.000
   34.05    29.000    71.000  4868.000  4868.000    47.608    75.000
   34.10    27.000    58.000  4866.000  4866.000    47.608    62.000
   34.15    31.000    65.000  4867.000  4867.000    62.756    73.000
   34.20    21.000    74.000  4868.000  4868.000    62.756    64.000
   34.25    24.000    66.000  4868.000  4868.000    47.608    71.000
   34.30    26.000    83.000  4867.000  4867.000    62.756    74.000
   34.35    26.000    83.000  4867.000  4867.000    60.592    68.000
   34.40    25.000    72.000  4867.000  4867.000    60.592    71.000
   34.45    22.000    77.000  4867.000  4867.000    56.264    58.000
   34.50    19.000    79.000  4867.000  4867.000    54.100    65.000
   34.55    20.000    64.000  4867.000  4867.000    49.772    74.000
   34.60    18.000    79.000  4867.000  4867.000    62.756    66.000
   34.65    33.000    73.000  4868.000  4868.000    43.280    83.000
   34.70    30.000    74.000  4866.000  4866.000    34.624    83.000
   34.75    28.000    75.000  4866.000  4866.000    34.624    72.000
   34.80    29.000    70.000  4866.000  4866.000    51.936    77.000
   34.85    35.000    86.000  4867.000  4867.000    51.936    79.000
   34.90    25.000    76.000  4866.000  4866.000    58.428    64.000
   34.95    24.000    72.000  4868.000  4868.000    36.788    79.000
   35.00    22.000    65.000  4868.000  4868.000    38.952    73.000
   35.05    17.000    82.000  4868.000  4868.000    45.444    74.000
   35.10    20.000    90.000  4867.000  4867.000    30.296    75.000
   35.15    18.000    93.000  4870.000  4870.000    41.116    70.000
   35.20    21.000    75.000  4867.000  4867.000    38.952    86.000
   35.25    20.000    77.000  4866.000  4866.000    34.624    76.000
   35.30    16.000    71.000  4864.000  4864.000    47.608    72.000
   35.35    21.000    66.000  4865.000  4865.000    62.756    65.000
   35.40    34.000    55.000  4870.000  4870.000    67.084    82.000
   35.45    29.000    63.000  4870.000  4870.000    60.592    90.000
   35.50    22.000    74.000  4867.000  4867.000    60.592    93.000
   35.55    22.000    75.000  4868.000  4868.000    51.936    75.000
   35.60    29.000    85.000  4868.000  4868.000    64.920    77.000
   35.65    29.000    85.000  4868.000  4868.000    62.756    71.000
   35.70    22.000    70.000  4865.000  4865.000    34.624    66.000
   35.75    29.000    73.000  4868.000  4868.000    36.788    55.000
   35.80    28.000    84.000  4868.000  4868.000    41.116    63.000
   35.85    28.000    83.000  4867.000  4867.000    43.280    74.000
   35.90    26.000    79.000  4868.000  4868.000    51.936    75.000
   35.95    25.000    87.000  4867.000  4867.000    64.920    85.000
   36.00    23.000    75.000  4866.000  4866.000    51.936    85.000
   36.05    29.000    68.000  4868.000  4868.000    45.444    70.000
   36.10    20.000    72.000  4868.000  4868.000    60.592    73.000
   36.15    16.000    88.000  4868.000  4868.000    60.592    84.000
   36.20    16.000    88.000  4868.000  4868.000    56.264    83.000
   36.25    24.000    82.000  4870.000  4870.000    45.444    79.000
   36.30    24.000    82.000  4870.000  4870.000    51.936    87.000
   36.35    27.000    79.000  4863.000  4863.000    51.936    75.000
   36.40    17.000    85.000  4869.000  4869.000    62.756    68.000
   36.45    18.000    74.000  4866.000  4866.000    47.608    72.000
   36.50    21.000    86.000  4867.000  4867.000    60.592    88.000
   36.55    14.000    95.000  4868.000  4868.000    60.592    88.000
   36.60    19.000    68.000  4869.000  4869.000    62.756    82.000
   36.65    18.000    89.000  4869.000  4869.000    82.232    82.000
   36.70    16.000    95.000  4868.000  4868.000    54.100    79.000
   36.75    22.000    85.000  4867.000  4867.000    54.100    85.000
   36.80    29.000   101.000  4867.000  4867.000    47.608    74.000
   36.85    31.000    78.000  4867.000  4867.000    45.444    86.000
   36.90    28.000    79.000  4867.000  4867.000    62.756    95.000
   36.95    28.000    79.000  4867.000  4867.000    69.248    68.000
   37.00    24.000    76.000  4867.000  4867.000    84.396    89.000
   37.05    30.000    86.000  4867.000  4867.000    58.428    95.000
   37.10    29.000    85.000  4867.000  4867.000    49.772    85.000
   37.15    16.000    70.000  4867.000  4867.000    69.248   101.000
   37.20    17.000    77.000  4868.000  4868.000    64.920    78.000
   37.25    19.000    96.000  4868.000  4868.000    64.920    79.000
   37.30    20.000    95.000  4867.000  4867.000    62.756    79.000
   37.35    24.000    82.000  4867.000  4867.000    41.116    76.000
   37.40    30.000    77.000  4868.000  4868.000    56.264    86.000
