~Version Information
VERS.    1.20:   CWLS log ASCII Standard - version 1.20
WRAP.      NO:   one line per depth step
~Well Information
#MNEM.UNIT     Data Type     Information
#_________     _________     ________________________
 STRT.M           30.000:
 STOP.M           53.700:
 STEP.M            0.050:
 NULL.              -0.0:
 COMP.           COMPANY: 
 WELL.              WELL: GT14571
 FLD.              FIELD: 
 LOC.           LOCATION:  
 CNTY.            COUNTY:  
 STAT.             STATE: 
 CTRY.           COUNTRY: 
 SRVC.   SERVICE COMPANY: 
 DATE.          LOG DATE: 07/05/2014
 UWI.     UNIQUE WELL ID: unknown
~Curve Information
#MNEM.UNIT       Curve  Information
#_________       _____  ___________________
 DEPT.M        :    1   DEPTH
 DNCP.cps      :    2   DNCPS
 DFCP.cps      :    3   DFCPS
 GCPS.cps      :    4   GCPS
 DENF.cps      :    5   DENS_F
 DENN.cps      :    6   DENS_N
 GAMM.cps      :    7   GAMMA
~Parameter Information
~Other Information
~A Depth      DNCP      DFCP      GCPS      DENF      DENN      GAMM
# ...
   47.45 12877.000  2017.000    20.000  2482.000 12557.000    43.280
   47.50 12928.000  2269.000    18.000  2484.000 12542.000    38.952
   47.55 12895.000  2399.000    20.000  2511.000 12487.000    43.280
   47.60 12966.000  2482.000    22.000  2476.000 12668.000    47.608
   47.65 13144.000  2482.000    13.000  2492.000 12877.000    28.132
   47.70 13393.000  2484.000    20.000  2547.000 12928.000    43.280
   47.75 13440.000  2511.000    17.000  2623.000 12895.000    36.788
   47.80 13247.000  2476.000    15.000  2583.000 12966.000    32.460
   47.85 13469.000  2492.000     9.000  2663.000 13144.000    19.476
   47.90 13345.000  2547.000    12.000  2795.000 13393.000    25.968
   47.95 13737.000  2623.000    13.000  2842.000 13440.000    28.132
   48.00 15383.000  2583.000    22.000  3144.000 13247.000    47.608
   48.05 16529.000  2663.000    15.000  3438.000 13469.000    32.460
   48.10 17129.000  2795.000    12.000  3533.000 13345.000    25.968
   48.15 17649.000  2842.000    10.000  3702.000 13737.000    21.640
   48.20 17994.000  3144.000    14.000  3719.000 15383.000    30.296
   48.25 18309.000  3438.000    15.000  3772.000 16529.000    32.460
   48.30 18099.000  3533.000    13.000  3898.000 17129.000    28.132
   48.35 16830.000  3702.000    16.000  4009.000 17649.000    34.624
   48.40 15575.000  3719.000    14.000  4067.000 17994.000    30.296
   48.45 15885.000  3772.000    21.000  4138.000 18309.000    45.444
   48.50 15439.000  3898.000    40.000  3881.000 18099.000    86.560
   48.55 14347.000  4009.000    67.000  3339.000 16830.000   144.988
   48.60 13060.000  4067.000   144.000  2980.000 15575.000   311.616
   48.65 11939.000  4138.000   334.000  2666.000 15885.000   722.776
   48.70 11628.000  3881.000   908.000  2489.000 15439.000  1964.912
   48.75 11102.000  3339.000  1210.000  2419.000 14347.000  2618.440
   48.80  9981.000  2980.000  1585.000  2295.000 13060.000  3429.940
   48.85  8112.000  2666.000  1661.000  2105.000 11939.000  3594.404
   48.90  7137.000  2489.000  1682.000  2139.000 11628.000  3639.848
   48.95  7177.000  2419.000  1563.000  2057.000 11102.000  3382.332
   49.00  7634.000  2295.000  1535.000  2068.000  9981.000  3321.740
   49.05  8383.000  2105.000  1562.000  2095.000  8112.000  3380.168
   49.10  8967.000  2139.000  1379.000  2508.000  7137.000  2984.156
   49.15  9904.000  2057.000   824.000  3015.000  7177.000  1783.136
   49.20 10815.000  2068.000   314.000  3194.000  7634.000   679.496
   49.25 12512.000  2095.000   208.000  3515.000  8383.000   450.112
   49.30 14487.000  2508.000   167.000  3651.000  8967.000   361.388
   49.35 15558.000  3015.000   159.000  3956.000  9904.000   344.076
   49.40 16338.000  3194.000   114.000  4303.000 10815.000   246.696
   49.45 16441.000  3515.000   102.000  4631.000 12512.000   220.728
   49.50 16717.000  3651.000   119.000  5013.000 14487.000   257.516
   49.55 17081.000  3956.000   132.000  5069.000 15558.000   285.648
   49.60 17280.000  4303.000   124.000  4705.000 16338.000   268.336
   49.65 15984.000  4631.000   126.000  4469.000 16441.000   272.664
   49.70 14861.000  5013.000   129.000  4031.000 16717.000   279.156
   49.75 13845.000  5069.000   140.000  3665.000 17081.000   302.960
   49.80 12597.000  4705.000   130.000  3243.000 17280.000   281.320
   49.85 11930.000  4469.000   146.000  3168.000 15984.000   315.944
   49.90 11384.000  4031.000   161.000  2889.000 14861.000   348.404
   49.95 11105.000  3665.000   137.000  2694.000 13845.000   296.468
   50.00 10790.000  3243.000   120.000  2552.000 12597.000   259.680
   50.05 11168.000  3168.000   131.000  2369.000 11930.000   283.484
   50.10 11337.000  2889.000   128.000  2324.000 11384.000   276.992
   50.15 11984.000  2694.000   141.000  2274.000 11105.000   305.124
   50.20 12286.000  2552.000   136.000  2207.000 10790.000   294.304
   50.25 12613.000  2369.000   128.000  2201.000 11168.000   276.992
   50.30 12334.000  2324.000   118.000  2324.000 11337.000   255.352
   50.35 12176.000  2274.000   147.000  2288.000 11984.000   318.108
   50.40 11564.000  2207.000   123.000  2341.000 12286.000   266.172
   50.45 11239.000  2201.000   131.000  2365.000 12613.000   283.484
   50.50 10903.000  2324.000   111.000  2304.000 12334.000   240.204
   50.55 10385.000  2288.000   117.000  2237.000 12176.000   253.188
   50.60 10222.000  2341.000   121.000  2014.000 11564.000   261.844
   50.65  9675.000  2365.000   135.000  1978.000 11239.000   292.140
   50.70  9109.000  2304.000   126.000  1944.000 10903.000   272.664
   50.75  8837.000  2237.000   179.000  1846.000 10385.000   387.356
   50.80  8558.000  2014.000   286.000  1658.000 10222.000   618.904
   50.85  8068.000  1978.000   668.000  1567.000  9675.000  1445.552
   50.90  7696.000  1944.000  1426.000  1429.000  9109.000  3085.864
   50.95  7164.000  1846.000  1824.000  1514.000  8837.000  3947.136
   51.00  6549.000  1658.000  1909.000  1396.000  8558.000  4131.076
   51.05  5536.000  1567.000  2016.000  1340.000  8068.000  4362.624
   51.10  5472.000  1429.000  1995.000  1305.000  7696.000  4317.180
   51.15  5628.000  1514.000  1955.000  1206.000  7164.000  4230.620
   51.20  5640.000  1396.000  2010.000  1342.000  6549.000  4349.640
   51.25  5574.000  1340.000  1996.000  1901.000  5536.000  4319.344
   51.30  5586.000  1305.000  1966.000  2285.000  5472.000  4254.424
   51.35  5663.000  1206.000  1887.000  2548.000  5628.000  4083.468
   51.40  5867.000  1342.000  2013.000  2737.000  5640.000  4356.132
   51.45  5857.000  1901.000  1991.000  2695.000  5574.000  4308.524
   51.50  6033.000  2285.000  1860.000  2759.000  5586.000  4025.040
   51.55  5978.000  2548.000  1497.000  2733.000  5663.000  3239.508
   51.60  6276.000  2737.000     0.000  2735.000  5867.000     0.000
   51.65  6493.000  2695.000      -0.0  2723.000  5857.000 -2163.978
   51.70  6135.000  2759.000      -0.0  2787.000  6033.000 -2163.978
   51.75  5891.000  2733.000      -0.0  2671.000  5978.000 -2163.978
   51.80  5647.000  2735.000      -0.0  2806.000  6276.000 -2163.978
   51.85  5145.000  2723.000      -0.0  2592.000  6493.000 -2163.978
   51.90  4584.000  2787.000      -0.0  2270.000  6135.000 -2163.978
   51.95  4191.000  2671.000      -0.0  1590.000  5891.000 -2163.978
   52.00  3977.000  2806.000      -0.0  1095.000  5647.000 -2163.978
   52.05  3845.000  2592.000      -0.0   781.000  5145.000 -2163.978
   52.10  3532.000  2270.000      -0.0   629.000  4584.000 -2163.978
   52.15  3451.000  1590.000      -0.0   610.000  4191.000 -2163.978
   52.20  3315.000  1095.000      -0.0   532.000  3977.000 -2163.978
   52.25  3294.000   781.000      -0.0   483.000  3845.000 -2163.978
   52.30  3379.000   629.000      -0.0   464.000  3532.000 -2163.978
   52.35  3301.000   610.000      -0.0   467.000  3451.000 -2163.978
   52.40  3423.000   532.000      -0.0   475.000  3315.000 -2163.978
   52.45  3582.000   483.000      -0.0   468.000  3294.000 -2163.978
   52.50  3534.000   464.000      -0.0   447.000  3379.000 -2163.978
   52.55  3493.000   467.000      -0.0   481.000  3301.000 -2163.978
   52.60  3591.000   475.000      -0.0   488.000  3423.000 -2163.978
   52.65  3494.000   468.000      -0.0   500.000  3582.000 -2163.978
   52.70  3656.000   447.000      -0.0   451.000  3534.000 -2163.978
   52.75  3729.000   481.000      -0.0   522.000  3493.000 -2163.978
   52.80  3865.000   488.000      -0.0   520.000  3591.000 -2163.978
   52.85  4336.000   500.000      -0.0   614.000  3494.000 -2163.978
   52.90  4872.000   451.000      -0.0   666.000  3656.000 -2163.978
   52.95  5147.000   522.000      -0.0   726.000  3729.000 -2163.978
   53.00  5591.000   520.000      -0.0   674.000  3865.000 -2163.978
   53.05  6501.000   614.000      -0.0   838.000  4336.000 -2163.978
   53.10  7841.000   666.000      -0.0   895.000  4872.000 -2163.978
   53.15  9318.000   726.000      -0.0   952.000  5147.000 -2163.978
   53.20  9810.000   674.000      -0.0  1115.000  5591.000 -2163.978
