~Version Information
VERS.    1.20:   CWLS log ASCII Standard - version 1.20
WRAP.      NO:   one line per depth step
~Well Information
#MNEM.UNIT     Data Type     Information
#_________     _________     ________________________
 STRT.M           20.000:
 STOP.M           54.350:
 STEP.M            0.050:
 NULL.              -0.0:
 COMP.           COMPANY: 
 WELL.              WELL: GT14574
 FLD.              FIELD: 
 LOC.           LOCATION:  
 CNTY.            COUNTY:  
 STAT.             STATE: 
 CTRY.           COUNTRY: 
 SRVC.   SERVICE COMPANY: 
 DATE.          LOG DATE: 07/05/2014
 UWI.     UNIQUE WELL ID: unknown
~Curve Information
#MNEM.UNIT       Curve  Information
#_________       _____  ___________________
 DEPT.M        :    1   DEPTH
 GCPS.cps      :    2   GCPS
 NCPS.cps      :    3   NCPS
 CCLC.cps      :    4   CCLCPS
 CCL .cps      :    5   CCL
 GAPI.Gapi     :    6   GAPI
 NEUT.cps      :    7   NEUTRON
~Parameter Information
~Other Information
~A Depth      GCPS      NCPS      CCLC      CCL       GAPI      NEUT
# ...
   43.25    23.000    60.000  4869.000  4869.000 13440.604    48.000
   43.30    22.000    53.000  4868.000  4868.000 15357.908    57.000
   43.35    29.000    41.000  4868.000  4868.000 16061.208    57.000
   43.40    26.000    62.000  4867.000  4867.000 16394.464    46.000
   43.45    28.000    56.000  4868.000  4868.000 16766.672    45.000
   43.50    29.000    65.000  4867.000  4867.000 17337.968    47.000
   43.55    31.000    58.000  4868.000  4868.000 17814.048    62.000
   43.60    31.000    61.000  4868.000  4868.000 18785.684    60.000
   43.65    25.000    67.000  4867.000  4867.000 18398.328    53.000
   43.70    31.000    73.000  4867.000  4867.000 18759.716    41.000
   43.75    30.000    79.000  4867.000  4867.000 18815.980    62.000
   43.80    25.000    84.000  4867.000  4867.000 18339.900    56.000
   43.85    33.000    95.000  4866.000  4866.000 18266.324    65.000
   43.90    33.000    73.000  4868.000  4868.000 17335.804    58.000
   43.95    38.000    72.000  4867.000  4867.000 16613.028    61.000
   44.00    83.000    61.000  4868.000  4868.000 12585.824    67.000
   44.05    91.000    73.000  4869.000  4869.000  9112.604    73.000
   44.10   104.000    64.000  4866.000  4866.000  3261.148    79.000
   44.15   106.000    61.000  4865.000  4865.000  2151.016    84.000
   44.20   158.000    53.000  4870.000  4870.000  1045.212    95.000
   44.25   158.000    53.000  4870.000  4870.000   820.156    73.000
   44.30   553.000    56.000  4867.000  4867.000   543.164    72.000
   44.35   553.000    56.000  4867.000  4867.000   543.164    61.000
   44.40  1294.000    59.000  4867.000  4867.000   300.796    73.000
   44.45  1294.000    59.000  4867.000  4867.000   300.796    64.000
   44.50  2555.000    50.000  4867.000  4867.000    41.116    61.000
   44.55  2555.000    50.000  4867.000  4867.000    41.116    53.000
   44.60  3942.000    64.000  4867.000  4867.000    45.444    53.000
   44.65  5479.000    55.000  4867.000  4867.000    34.624    56.000
   44.70  6211.000    64.000  4868.000  4868.000    28.132    56.000
   44.75  7097.000    56.000  4867.000  4867.000    34.624    59.000
   44.80  7422.000    56.000  4868.000  4868.000    36.788    59.000
   44.85  7576.000    54.000  4868.000  4868.000    30.296    50.000
   44.90  7748.000    47.000  4868.000  4868.000    17.312    50.000
   44.95  8012.000    62.000  4868.000  4868.000    19.476    64.000
   45.00  8232.000    73.000  4867.000  4867.000    19.476    55.000
   45.05  8681.000    51.000  4867.000  4867.000    17.312    64.000
   45.10  8502.000    42.000  4867.000  4867.000    34.624    56.000
   45.15  8669.000    55.000  4868.000  4868.000    19.476    56.000
   45.20  8695.000    60.000  4867.000  4867.000    21.640    54.000
   45.25  8475.000    56.000  4867.000  4867.000    28.132    47.000
   45.30  8441.000    42.000  4869.000  4869.000    23.804    62.000
   45.35  8011.000    42.000  4868.000  4868.000    17.312    73.000
   45.40  7677.000    45.000  4867.000  4867.000    12.984    51.000
   45.45  5816.000    54.000  4867.000  4867.000    17.312    42.000
   45.50  4211.000    58.000  4868.000  4868.000    12.984    55.000
   45.55  1507.000    57.000  4870.000  4870.000    36.788    60.000
   45.60   994.000    56.000  4869.000  4869.000    41.116    56.000
   45.65   483.000    61.000  4867.000  4867.000    19.476    42.000
   45.70   379.000    69.000  4871.000  4871.000    12.984    42.000
   45.75   251.000    59.000  4865.000  4865.000    51.936    45.000
   45.80   251.000    59.000  4865.000  4865.000    51.936    54.000
   45.85   139.000    52.000  4865.000  4865.000    36.788    58.000
   45.90   139.000    52.000  4865.000  4865.000    36.788    57.000
   45.95    19.000    65.000  4871.000  4871.000    43.280    56.000
   46.00    19.000    65.000  4871.000  4871.000    43.280    61.000
   46.05    21.000    75.000  4859.000  4859.000    34.624    69.000
   46.10    16.000    59.000  4885.000  4885.000    34.624    59.000
   46.15    13.000    54.000  4868.000  4868.000    23.804    59.000
   46.20    16.000    49.000  4897.000  4897.000    34.624    52.000
   46.25    17.000    44.000  4909.000  4909.000    43.280    52.000
   46.30    14.000    61.000  4822.000  4822.000    23.804    65.000
   46.35     8.000    64.000  4665.000  4665.000    25.968    65.000
   46.40     9.000    67.000  3827.000  3827.000    23.804    75.000
   46.45     9.000    59.000  5276.000  5276.000    19.476    59.000
   46.50     8.000    45.000  5236.000  5236.000    25.968    54.000
   46.55    16.000    52.000  4000.000  4000.000    19.476    49.000
   46.60     9.000    44.000  5060.000  5060.000     8.656    44.000
   46.65    10.000    40.000  4990.000  4990.000    17.312    61.000
   46.70    13.000    61.000  4902.000  4902.000    23.804    64.000
   46.75    11.000    56.000  4877.000  4877.000    21.640    67.000
   46.80     8.000    42.000  4809.000  4809.000    15.148    59.000
   46.85     6.000    41.000  4872.000  4872.000    21.640    45.000
   46.90     8.000    64.000  5756.000  5756.000    25.968    52.000
   46.95     6.000    50.000  5621.000  5621.000    25.968    44.000
   47.00    17.000    37.000  3031.000  3031.000    32.460    40.000
   47.05    19.000    48.000  5526.000  5526.000    32.460    61.000
   47.10     9.000    42.000  4625.000  4625.000    51.936    56.000
   47.15     6.000    50.000  4575.000  4575.000    45.444    42.000
   47.20    24.000    59.000  4854.000  4854.000    30.296    41.000
   47.25    24.000    59.000  4854.000  4854.000    43.280    64.000
   47.30    17.000    61.000  4869.000  4869.000    62.756    50.000
   47.35    17.000    61.000  4869.000  4869.000    54.100    37.000
   47.40    20.000    45.000  4868.000  4868.000    49.772    48.000
   47.45    20.000    45.000  4868.000  4868.000    47.608    42.000
   47.50    16.000    38.000  4869.000  4869.000    60.592    50.000
   47.55    16.000    38.000  4869.000  4869.000    32.460    59.000
   47.60    11.000    46.000  4868.000  4868.000    47.608    59.000
   47.65    16.000    77.000  4868.000  4868.000    47.608    61.000
   47.70    20.000    71.000  4868.000  4868.000    36.788    61.000
   47.75    11.000    84.000  4867.000  4867.000    36.788    45.000
   47.80    12.000    71.000  4868.000  4868.000    51.936    45.000
   47.85    11.000    63.000  4868.000  4868.000    32.460    38.000
   47.90     9.000    58.000  4868.000  4868.000    36.788    38.000
   47.95    12.000    44.000  4868.000  4868.000    36.788    46.000
   48.00     9.000    37.000  4867.000  4867.000    56.264    77.000
   48.05     4.000    51.000  4868.000  4868.000    23.804    71.000
   48.10     8.000    43.000  4867.000  4867.000    28.132    84.000
   48.15    11.000    39.000  4870.000  4870.000    30.296    71.000
   48.20    10.000    31.000  4866.000  4866.000    30.296    63.000
   48.25     7.000    35.000  4869.000  4869.000    45.444    58.000
   48.30    10.000    46.000  4870.000  4870.000    38.952    44.000
   48.35    12.000    39.000  4867.000  4867.000    51.936    37.000
   48.40    12.000    48.000  4867.000  4867.000    45.444    51.000
   48.45    15.000    60.000  4867.000  4867.000    67.084    43.000
   48.50    15.000    61.000  4865.000  4865.000    95.216    39.000
   48.55    24.000    64.000  4867.000  4867.000   162.300    31.000
   48.60    21.000    64.000  4871.000  4871.000   162.300    35.000
   48.65    14.000    73.000  4864.000  4864.000   553.984    46.000
   48.70    20.000    75.000  4862.000  4862.000  1899.992    39.000
   48.75    29.000    88.000  4871.000  4871.000  2692.016    48.000
   48.80    25.000   116.000  4865.000  4865.000  3622.536    60.000
   48.85    23.000   139.000  4866.000  4866.000  3689.620    61.000
   48.90    22.000   136.000  4867.000  4867.000  3462.400    64.000
   48.95    28.000   140.000  4861.000  4861.000  3339.052    64.000
   49.00    15.000   136.000  4819.000  4819.000  3291.444    73.000
