~Version Information
VERS.    1.20:   CWLS log ASCII Standard - version 1.20
WRAP.      NO:   one line per depth step
~Well Information
#MNEM.UNIT     Data Type     Information
#_________     _________     ________________________
 STRT.M           20.000:
 STOP.M           54.350:
 STEP.M            0.050:
 NULL.              -0.0:
 COMP.           COMPANY: 
 WELL.              WELL: GT14574
 FLD.              FIELD: 
 LOC.           LOCATION:  
 CNTY.            COUNTY:  
 STAT.             STATE: 
 CTRY.           COUNTRY: 
 SRVC.   SERVICE COMPANY: 
 DATE.          LOG DATE: 07/05/2014
 UWI.     UNIQUE WELL ID: unknown
~Curve Information
#MNEM.UNIT       Curve  Information
#_________       _____  ___________________
 DEPT.M        :    1   DEPTH
 GCPS.cps      :    2   GCPS
 NCPS.cps      :    3   NCPS
 CCLC.cps      :    4   CCLCPS
 CCL .cps      :    5   CCL
 GAPI.Gapi     :    6   GAPI
 NEUT.cps      :    7   NEUTRON
~Parameter Information
~Other Information
~A Depth      GCPS      NCPS      CCLC      CCL       GAPI      NEUT
# ...
   49.05    22.000   151.000  3978.000  3978.000  3291.444    75.000
   49.10    22.000   151.000  3978.000  3978.000  2895.432    88.000
   49.15    17.000   146.000  8180.000  8180.000  1309.220   116.000
   49.20    17.000   146.000  8180.000  8180.000   750.908   139.000
   49.25    24.000   127.000  3259.000  3259.000   383.028   136.000
   49.30    15.000    71.000  5220.000  5220.000   315.944   140.000
   49.35    17.000    63.000  5042.000  5042.000   320.272   136.000
   49.40    17.000    63.000  5042.000  5042.000   309.452   151.000
   49.45    26.000    68.000  4916.000  4916.000   311.616   151.000
   49.50    11.000    43.000  4301.000  4301.000   259.680   146.000
   49.55    13.000    49.000  4687.000  4687.000   246.696   146.000
   49.60    14.000    52.000  5082.000  5082.000   311.616   127.000
   49.65    14.000    55.000  5121.000  5121.000   276.992    71.000
   49.70    21.000    43.000  4974.000  4974.000   251.024    63.000
   49.75    18.000    44.000  4242.000  4242.000   251.024    63.000
   49.80    24.000    50.000  3671.000  3671.000   298.632    68.000
   49.85    21.000    46.000  6190.000  6190.000   287.812    43.000
   49.90    31.000    43.000  4794.000  4794.000   289.976    49.000
   49.95    44.000    39.000  4587.000  4587.000   253.188    52.000
   50.00    75.000    51.000  5335.000  5335.000   261.844    55.000
   50.05    75.000    51.000  5335.000  5335.000   294.304    43.000
   50.10   256.000    51.000  4494.000  4494.000   281.320    44.000
   50.15   878.000    45.000  3869.000  3869.000   268.336    50.000
   50.20  1244.000    45.000  4408.000  4408.000   235.876    46.000
   50.25  1674.000    43.000  5192.000  5192.000   276.992    43.000
   50.30  1705.000    42.000  3577.000  3577.000   335.420    39.000
   50.35  1600.000    49.000  6139.000  6139.000   255.352    51.000
   50.40  1543.000    43.000  6980.000  6980.000   272.664    51.000
   50.45  1521.000    45.000  3255.000  3255.000   264.008    51.000
   50.50  1521.000    45.000  3255.000  3255.000   300.796    45.000
   50.55  1338.000    49.000  5869.000  5869.000   259.680    45.000
   50.60   605.000    52.000  4947.000  4947.000   300.796    43.000
   50.65   347.000    48.000  5320.000  5320.000   292.140    42.000
   50.70   177.000    45.000  4226.000  4226.000   370.044    49.000
   50.75   146.000    53.000  4608.000  4608.000   437.128    43.000
   50.80   148.000    53.000  5783.000  5783.000   647.036    45.000
   50.85   143.000    59.000  5959.000  5959.000  2001.700    45.000
   50.90   144.000    48.000  5190.000  5190.000  3018.780    49.000
   50.95   120.000    73.000  3356.000  3356.000  4014.220    52.000
   51.00   114.000    64.000  5708.000  5708.000  4055.336    48.000
   51.05   144.000    73.000  4540.000  4540.000  4044.516    45.000
   51.10   128.000    70.000  4749.000  4749.000  4198.160    53.000
   51.15   116.000    95.000  4860.000  4860.000  4250.096    53.000
   51.20   116.000    95.000  4860.000  4860.000  4291.212    59.000
   51.25   138.000   106.000  4872.000  4872.000  4057.500    48.000
   51.30   133.000   125.000  4871.000  4871.000  4198.160    73.000
   51.35   134.000   102.000  4870.000  4870.000  4198.160    64.000
   51.40   117.000   120.000  4869.000  4869.000  4193.832    73.000
   51.45   121.000   125.000  4859.000  4859.000  4085.632    70.000
   51.50   136.000   124.000  4843.000  4843.000  3618.208    95.000
   51.55   130.000    88.000  4910.000  4910.000  1925.960    95.000
   51.60   124.000    96.000  4861.000  4861.000  1172.888   106.000
   51.65   109.000    65.000  4896.000  4896.000   621.068   125.000
   51.70   128.000    55.000  4928.000  4928.000   110.364   102.000
   51.75   155.000    62.000  4857.000  4857.000    58.428   120.000
   51.80   118.000    55.000  4884.000  4884.000    19.476   125.000
   51.85   126.000    46.000  4869.000  4869.000    30.296   124.000
   51.90   122.000    51.000  4879.000  4879.000     8.656    88.000
   51.95   139.000    45.000  4877.000  4877.000     8.656    96.000
   52.00   120.000    43.000  4850.000  4850.000    15.148    65.000
   52.05   139.000    61.000  4857.000  4857.000    17.312    55.000
   52.10   135.000    44.000  4794.000  4794.000     8.656    62.000
   52.15   171.000    40.000  4958.000  4958.000    10.820    55.000
   52.20   202.000    44.000  4831.000  4831.000    10.820    46.000
   52.25   299.000    49.000  4786.000  4786.000    21.640    51.000
   52.30   925.000    45.000  4922.000  4922.000    21.640    45.000
   52.35  1395.000    40.000  4848.000  4848.000    10.820    43.000
   52.40  1855.000    42.000  4934.000  4934.000    12.984    61.000
   52.45  1874.000    46.000  4854.000  4854.000    28.132    44.000
   52.50  1869.000    52.000  4803.000  4803.000    19.476    40.000
   52.55  1940.000    42.000  4917.000  4917.000 -2163.978    44.000
   52.60  1964.000    45.000  4874.000  4874.000 -2163.978    49.000
   52.65  1983.000    41.000  4868.000  4868.000 -2163.978    45.000
   52.70  1875.000    40.000  4914.000  4914.000 -2163.978    40.000
   52.75  1940.000    56.000  4825.000  4825.000 -2163.978    42.000
   52.80  1940.000    56.000  4825.000  4825.000 -2163.978    46.000
   52.85  1938.000    46.000  4889.000  4889.000 -2163.978    52.000
   52.90  1888.000    38.000  4862.000  4862.000 -2163.978    42.000
   52.95  1672.000    46.000  4991.000  4991.000 -2163.978    45.000
   53.00   890.000    45.000  4724.000  4724.000 -2163.978    41.000
   53.05   542.000    54.000  4816.000  4816.000 -2163.978    40.000
   53.10   287.000    51.000  4952.000  4952.000 -2163.978    56.000
   53.15    51.000    57.000  4840.000  4840.000 -2163.978    56.000
   53.20    27.000    46.000  4856.000  4856.000 -2163.978    46.000
   53.25     9.000    51.000  4865.000  4865.000 -2163.978    38.000
   53.30    14.000    42.000  4868.000  4868.000 -2163.978    46.000
   53.35     4.000    39.000  4868.000  4868.000 -2163.978    45.000
   53.40     4.000    39.000  4868.000  4868.000 -2163.978    54.000
   53.45     7.000    40.000  4868.000  4868.000 -2163.978    51.000
   53.50     8.000    53.000  4868.000  4868.000 -2163.978    57.000
   53.55     4.000    47.000  4869.000  4869.000 -2163.978    46.000
   53.60     5.000    51.000  4869.000  4869.000 -2163.978    51.000
   53.65     5.000    54.000  4868.000  4868.000 -2163.978    42.000
   53.70    10.000    35.000  4867.000  4867.000 -2163.978    39.000
   53.75    10.000    42.000  4867.000  4867.000 -2163.978    39.000
   53.80     5.000    43.000  4869.000  4869.000 -2163.978    40.000
   53.85     6.000    46.000  4870.000  4870.000 -2163.978    53.000
   53.90    13.000    51.000  4867.000  4867.000 -2163.978    47.000
   53.95     9.000    44.000  4868.000  4868.000 -2163.978    51.000
   54.00      -0.0      -0.0      -0.0      -0.0 -2163.978    54.000
   54.05      -0.0      -0.0      -0.0      -0.0 -2163.978    35.000
   54.10      -0.0      -0.0      -0.0      -0.0 -2163.978    42.000
   54.15      -0.0      -0.0      -0.0      -0.0 -2163.978    43.000
   54.20      -0.0      -0.0      -0.0      -0.0 -2163.978    46.000
   54.25      -0.0      -0.0      -0.0      -0.0 -2163.978    51.000
   54.30      -0.0      -0.0      -0.0      -0.0 -2163.978    44.000
   54.35      -0.0      -0.0      -0.0      -0.0 -2163.978     0.000
