~Version Information
VERS.    1.20:   CWLS log ASCII Standard - version 1.20
WRAP.      NO:   one line per depth step
~Well Information
#MNEM.UNIT     Data Type     Information
#_________     _________     ________________________
 STRT.M           30.000:
 STOP.M           53.700:
 STEP.M            0.050:
 NULL.              -0.0:
 COMP.           COMPANY: 
 WELL.              WELL: GT14571
 FLD.              FIELD: 
 LOC.           LOCATION:  
 CNTY.            COUNTY:  
 STAT.             STATE: 
 CTRY.           COUNTRY: 
 SRVC.   SERVICE COMPANY: 
 DATE.          LOG DATE: 07/05/2014
 UWI.     UNIQUE WELL ID: unknown
~Curve Information
#MNEM.UNIT       Curve  Information
#_________       _____  ___________________
 DEPT.M        :    1   DEPTH
 DNCP.cps      :    2   DNCPS
 DFCP.cps      :    3   DFCPS
 GCPS.cps      :    4   GCPS
 DENF.cps      :    5   DENS_F
 DENN.cps      :    6   DENS_N
 GAMM.cps      :    7   GAMMA
~Parameter Information
~Other Information
~A Depth      DNCP      DFCP      GCPS      DENF      DENN      GAMM
# ...
   35.85      -0.0      -0.0    21.000      -0.0      -0.0    45.444
   35.90      -0.0      -0.0    20.000      -0.0      -0.0    43.280
   35.95      -0.0      -0.0    25.000      -0.0      -0.0    54.100
   36.00      -0.0      -0.0    30.000      -0.0      -0.0    64.920
   36.05      -0.0      -0.0    26.000      -0.0      -0.0    56.264
   36.10      -0.0      -0.0    30.000      -0.0      -0.0    64.920
   36.15      -0.0      -0.0    27.000      -0.0      -0.0    58.428
   36.20      -0.0      -0.0    22.000      -0.0      -0.0    47.608
   36.25      -0.0      -0.0    24.000      -0.0      -0.0    51.936
   36.30      -0.0      -0.0    19.000      -0.0      -0.0    41.116
   36.35      -0.0      -0.0    26.000      -0.0      -0.0    56.264
   36.40      -0.0      -0.0    29.000      -0.0      -0.0    62.756
   36.45      -0.0      -0.0    17.000      -0.0      -0.0    36.788
   36.50      -0.0      -0.0    19.000      -0.0      -0.0    41.116
   36.55      -0.0      -0.0    32.000      -0.0      -0.0    69.248
   36.60      -0.0      -0.0    28.000      -0.0      -0.0    60.592
   36.65      -0.0      -0.0    27.000      -0.0      -0.0    58.428
   36.70      -0.0      -0.0    25.000      -0.0      -0.0    54.100
   36.75      -0.0      -0.0    34.000      -0.0      -0.0    73.576
   36.80      -0.0      -0.0    28.000      -0.0      -0.0    60.592
   36.85      -0.0      -0.0    30.000      -0.0      -0.0    64.920
   36.90      -0.0      -0.0    35.000      -0.0      -0.0    75.740
   36.95 11939.000      -0.0    31.000  2393.000      -0.0    67.084
   37.00 12149.000      -0.0    22.000  2346.000      -0.0    47.608
   37.05 12085.000      -0.0    31.000  2313.000      -0.0    67.084
   37.10 12181.000      -0.0    20.000  2479.000      -0.0    43.280
   37.15 12338.000  2393.000    29.000  2429.000 11939.000    62.756
   37.20 12180.000  2346.000    32.000  2429.000 12149.000    69.248
   37.25 12027.000  2313.000    27.000  2491.000 12085.000    58.428
   37.30 12272.000  2479.000    37.000  2453.000 12181.000    80.068
   37.35 12356.000  2429.000    33.000  2511.000 12338.000    71.412
   37.40 12398.000  2429.000    23.000  2421.000 12180.000    49.772
   37.45 12121.000  2491.000    28.000  2482.000 12027.000    60.592
   37.50 12275.000  2453.000    18.000  2494.000 12272.000    38.952
   37.55 12305.000  2511.000    23.000  2449.000 12356.000    49.772
   37.60 12115.000  2421.000    26.000  2541.000 12398.000    56.264
   37.65 12236.000  2482.000    30.000  2499.000 12121.000    64.920
   37.70 12382.000  2494.000    24.000  2520.000 12275.000    51.936
   37.75 12264.000  2449.000    19.000  2384.000 12305.000    41.116
   37.80 12246.000  2541.000    16.000  2533.000 12115.000    34.624
   37.85 12285.000  2499.000    30.000  2490.000 12236.000    64.920
   37.90 12347.000  2520.000    21.000  2470.000 12382.000    45.444
   37.95 12531.000  2384.000    26.000  2410.000 12264.000    56.264
   38.00 12581.000  2533.000    22.000  2512.000 12246.000    47.608
   38.05 12534.000  2490.000    21.000  2446.000 12285.000    45.444
   38.10 12574.000  2470.000    22.000  2471.000 12347.000    47.608
   38.15 12147.000  2410.000    16.000  2581.000 12531.000    34.624
   38.20 12216.000  2512.000    23.000  2614.000 12581.000    49.772
   38.25 12455.000  2446.000    26.000  2468.000 12534.000    56.264
   38.30 12566.000  2471.000    26.000  2492.000 12574.000    56.264
   38.35 12503.000  2581.000    21.000  2566.000 12147.000    45.444
   38.40 12783.000  2614.000    21.000  2609.000 12216.000    45.444
   38.45 12960.000  2468.000    31.000  2654.000 12455.000    67.084
   38.50 12778.000  2492.000    33.000  2540.000 12566.000    71.412
   38.55 12808.000  2566.000    26.000  2654.000 12503.000    56.264
   38.60 12624.000  2609.000    21.000  2646.000 12783.000    45.444
   38.65 12681.000  2654.000    27.000  2602.000 12960.000    58.428
   38.70 12769.000  2540.000    28.000  2579.000 12778.000    60.592
   38.75 12527.000  2654.000    35.000  2613.000 12808.000    75.740
   38.80 12496.000  2646.000    30.000  2635.000 12624.000    64.920
   38.85 12347.000  2602.000    21.000  2581.000 12681.000    45.444
   38.90 12412.000  2579.000    33.000  2579.000 12769.000    71.412
   38.95 12466.000  2613.000    34.000  2572.000 12527.000    73.576
   39.00 12397.000  2635.000    22.000  2552.000 12496.000    47.608
   39.05 12469.000  2581.000    33.000  2519.000 12347.000    71.412
   39.10 12413.000  2579.000    21.000  2682.000 12412.000    45.444
   39.15 12667.000  2572.000    23.000  2585.000 12466.000    49.772
   39.20 12511.000  2552.000    24.000  2633.000 12397.000    51.936
   39.25 12657.000  2519.000    23.000  2677.000 12469.000    49.772
   39.30 12519.000  2682.000    25.000  2636.000 12413.000    54.100
   39.35 12602.000  2585.000    20.000  2585.000 12667.000    43.280
   39.40 12519.000  2633.000    26.000  2617.000 12511.000    56.264
   39.45 12475.000  2677.000    28.000  2613.000 12657.000    60.592
   39.50 12608.000  2636.000    20.000  2666.000 12519.000    43.280
   39.55 12566.000  2585.000    21.000  2603.000 12602.000    45.444
   39.60 12554.000  2617.000    27.000  2622.000 12519.000    58.428
   39.65 12462.000  2613.000    30.000  2612.000 12475.000    64.920
   39.70 12362.000  2666.000    31.000  2540.000 12608.000    67.084
   39.75 12359.000  2603.000    27.000  2594.000 12566.000    58.428
   39.80 11949.000  2622.000    27.000  2536.000 12554.000    58.428
   39.85 12057.000  2612.000    38.000  2482.000 12462.000    82.232
   39.90 11941.000  2540.000    17.000  2453.000 12362.000    36.788
   39.95 12055.000  2594.000    23.000  2445.000 12359.000    49.772
   40.00 11891.000  2536.000    21.000  2385.000 11949.000    45.444
   40.05 12215.000  2482.000    27.000  2485.000 12057.000    58.428
   40.10 12261.000  2453.000    18.000  2481.000 11941.000    38.952
   40.15 12275.000  2445.000    21.000  2546.000 12055.000    45.444
   40.20 12374.000  2385.000    27.000  2492.000 11891.000    58.428
   40.25 12365.000  2485.000    27.000  2442.000 12215.000    58.428
   40.30 12084.000  2481.000    25.000  2481.000 12261.000    54.100
   40.35 12279.000  2546.000    22.000  2492.000 12275.000    47.608
   40.40 12246.000  2492.000    22.000  2443.000 12374.000    47.608
   40.45 12144.000  2442.000    20.000  2345.000 12365.000    43.280
   40.50 12397.000  2481.000    24.000  2477.000 12084.000    51.936
   40.55 12128.000  2492.000    25.000  2427.000 12279.000    54.100
   40.60 11909.000  2443.000    22.000  2381.000 12246.000    47.608
   40.65 11839.000  2345.000    28.000  2401.000 12144.000    60.592
   40.70 11830.000  2477.000    19.000  2424.000 12397.000    41.116
   40.75 11923.000  2427.000    27.000  2370.000 12128.000    58.428
   40.80 12124.000  2381.000    26.000  2460.000 11909.000    56.264
   40.85 12371.000  2401.000    28.000  2548.000 11839.000    60.592
   40.90 12370.000  2424.000    17.000  2544.000 11830.000    36.788
   40.95 12322.000  2370.000    24.000  2526.000 11923.000    51.936
   41.00 12579.000  2460.000    25.000  2578.000 12124.000    54.100
   41.05 12611.000  2548.000    10.000  2555.000 12371.000    21.640
   41.10 12487.000  2544.000    24.000  2556.000 12370.000    51.936
   41.15 12680.000  2526.000    21.000  2532.000 12322.000    45.444
   41.20 12673.000  2578.000    20.000  2465.000 12579.000    43.280
   41.25 12622.000  2555.000    22.000  2483.000 12611.000    47.608
   41.30 12546.000  2556.000    26.000  2541.000 12487.000    56.264
   41.35 12315.000  2532.000    25.000  2602.000 12680.000    54.100
   41.40 12466.000  2465.000    29.000  2448.000 12673.000    62.756
   41.45 11981.000  2483.000    31.000  2400.000 12622.000    67.084
   41.50 11958.000  2541.000    30.000  2469.000 12546.000    64.920
   41.55 12053.000  2602.000    27.000  2423.000 12315.000    58.428
   41.60 12022.000  2448.000    22.000  2311.000 12466.000    47.608
